{
"type": "FeatureCollection",
"features": [
{ "type": "Feature", "id": 0, "properties": { "NAME": "Winchester Country Club", "TYPE": "Private", "MAIL_ADD": "P.O. Box 2076", "CITY": "Winchester", "ZIP": "22602", "PHONE": "540-662-3140", "COUNTY": "Frederick", "COMMENT": "", "HYPERLINK": "http:\/\/www.virginiagolf.com\/winchester.html" }, "geometry": { "type": "Point", "coordinates": [ -78.147478, 39.170198 ] } }
,
{ "type": "Feature", "id": 1, "properties": { "NAME": "Carper's Valley Golf Course", "TYPE": "Public", "MAIL_ADD": "1400 Millwood Pike", "CITY": "Winchester", "ZIP": "22602", "PHONE": "540-662-4319", "COUNTY": "Frederick", "COMMENT": "", "HYPERLINK": "http:\/\/www.virginiagolf.com\/carpersvalley.html" }, "geometry": { "type": "Point", "coordinates": [ -78.143781, 39.151069 ] } }
,
{ "type": "Feature", "id": 2, "properties": { "NAME": "Loudoun Golf and Country Club", "TYPE": "Private", "MAIL_ADD": "P.O. Box 189", "CITY": "Purcellville", "ZIP": "20134", "PHONE": "540-338-7705", "COUNTY": "Loudoun", "COMMENT": "", "HYPERLINK": "http:\/\/www.virginiagolf.com\/loudon.html" }, "geometry": { "type": "Point", "coordinates": [ -77.728867, 39.133371 ] } }
,
{ "type": "Feature", "id": 3, "properties": { "NAME": "Stoneleigh Golf Course", "TYPE": "Semi-Private", "MAIL_ADD": "35271 Prestwick Street", "CITY": "Round Hill", "ZIP": "20141", "PHONE": "540-589-1402", "COUNTY": "Loudoun", "COMMENT": "", "HYPERLINK": "http:\/\/www.virginiagolf.com\/stoneleigh.html" }, "geometry": { "type": "Point", "coordinates": [ -77.785647, 39.121731 ] } }
,
{ "type": "Feature", "id": 4, "properties": { "NAME": "River Creek Club", "TYPE": "Private", "MAIL_ADD": "43730 Olympic Boulevard", "CITY": "Leesburg", "ZIP": "20176", "PHONE": "703-779-2022", "COUNTY": "Loudoun", "COMMENT": "Estimated Boundary", "HYPERLINK": "http:\/\/www.rivercreekclub.com\/" }, "geometry": { "type": "Point", "coordinates": [ -77.494103, 39.106783 ] } }
,
{ "type": "Feature", "id": 5, "properties": { "NAME": "Goose Creek Golf Course", "TYPE": "Public", "MAIL_ADD": "43001 Golf Club Road", "CITY": "Leesburg", "ZIP": "22075", "PHONE": "703-729-2500", "COUNTY": "Loudoun", "COMMENT": "", "HYPERLINK": "http:\/\/www.virginiagolf.com\/goosecreek.html" }, "geometry": { "type": "Point", "coordinates": [ -77.513644, 39.082233 ] } }
,
{ "type": "Feature", "id": 6, "properties": { "NAME": "Lansdowne Golf Club", "TYPE": "Resort", "MAIL_ADD": "44050 Woodbridge Parkway", "CITY": "Leesburg", "ZIP": "20176", "PHONE": "703-729-4071", "COUNTY": "Loudoun", "COMMENT": "", "HYPERLINK": "http:\/\/www.virginiagolf.com\/lansdowne.html" }, "geometry": { "type": "Point", "coordinates": [ -77.476932, 39.078814 ] } }
,
{ "type": "Feature", "id": 7, "properties": { "NAME": "Algonkian Park Golf Course", "TYPE": "Public", "MAIL_ADD": "47001 Fairway Drive", "CITY": "Sterling", "ZIP": "20165", "PHONE": "703-450-4655", "COUNTY": "Loudoun", "COMMENT": "", "HYPERLINK": "http:\/\/www.virginiagolf.com\/algonkian.html" }, "geometry": { "type": "Point", "coordinates": [ -77.374980, 39.057434 ] } }
,
{ "type": "Feature", "id": 8, "properties": { "NAME": "River Bend Golf and Country Club", "TYPE": "Private", "MAIL_ADD": "9901 Beach Mill Road", "CITY": "Great Falls", "ZIP": "22066", "PHONE": "703-759-2640", "COUNTY": "Fairfax", "COMMENT": "", "HYPERLINK": "http:\/\/www.virginiagolf.com\/riverbend.html" }, "geometry": { "type": "Point", "coordinates": [ -77.286545, 39.018285 ] } }
,
{ "type": "Feature", "id": 9, "properties": { "NAME": "Sterling Park Golf, Swim and Tennis Club", "TYPE": "Public", "MAIL_ADD": "333 South Sterling Boulevard", "CITY": "Sterling", "ZIP": "20164", "PHONE": "703-430-1400", "COUNTY": "Loudoun", "COMMENT": "", "HYPERLINK": "http:\/\/www.virginia.org\/site\/description.asp?AttrID=28407&MGrp=1&MCat=86&MItm=22&Rgn=10000&StrtLtr=S" }, "geometry": { "type": "Point", "coordinates": [ -77.410788, 39.002549 ] } }
,
{ "type": "Feature", "id": 10, "properties": { "NAME": "Brambleton Regional Park Golf Course", "TYPE": "Public", "MAIL_ADD": "42180 Ryan Road", "CITY": "Ashburn", "ZIP": "20147", "PHONE": "703-327-3403", "COUNTY": "Loudoun", "COMMENT": "", "HYPERLINK": "http:\/\/www.virginiagolf.com\/brambleton.html" }, "geometry": { "type": "Point", "coordinates": [ -77.539907, 38.992164 ] } }
,
{ "type": "Feature", "id": 11, "properties": { "NAME": "Herndon Centennial Golf Course", "TYPE": "Public", "MAIL_ADD": "909 Ferndale Avenue", "CITY": "Herndon", "ZIP": "20170", "PHONE": "703-471-5769", "COUNTY": "Fairfax", "COMMENT": "", "HYPERLINK": "http:\/\/www.virginiagolf.com\/herndoncentennial.html" }, "geometry": { "type": "Point", "coordinates": [ -77.396048, 38.977399 ] } }
,
{ "type": "Feature", "id": 12, "properties": { "NAME": "Reston National Golf Course", "TYPE": "Semi-Private", "MAIL_ADD": "11875 Sunrise Valley Drive", "CITY": "Reston", "ZIP": "20191", "PHONE": "703-620-9333", "COUNTY": "Fairfax", "COMMENT": "", "HYPERLINK": "http:\/\/www.virginiagolf.com\/restonnational.html" }, "geometry": { "type": "Point", "coordinates": [ -77.355791, 38.943281 ] } }
,
{ "type": "Feature", "id": 13, "properties": { "NAME": "Westwood Country Club", "TYPE": "Private", "MAIL_ADD": "800 Maple Avenue", "CITY": "Vienna", "ZIP": "22180", "PHONE": "703-938-2593", "COUNTY": "Fairfax", "COMMENT": "", "HYPERLINK": "http:\/\/www.virginiagolf.com\/westwood.html" }, "geometry": { "type": "Point", "coordinates": [ -77.251090, 38.915003 ] } }
,
{ "type": "Feature", "id": 14, "properties": { "NAME": "Washington Golf and Country Club", "TYPE": "Private", "MAIL_ADD": "3017 North Glebe Road", "CITY": "Arlington", "ZIP": "22207", "PHONE": "703-522-7091", "COUNTY": "Arlington", "COMMENT": "", "HYPERLINK": "http:\/\/www.virginiagolf.com\/washington.html" }, "geometry": { "type": "Point", "coordinates": [ -77.123396, 38.910181 ] } }
,
{ "type": "Feature", "id": 15, "properties": { "NAME": "International Country Club", "TYPE": "Private", "MAIL_ADD": "13200 Lee Jackson Highway", "CITY": "Fairfax", "ZIP": "22033", "PHONE": "703-449-3430", "COUNTY": "Fairfax", "COMMENT": "", "HYPERLINK": "http:\/\/www.virginiagolf.com\/international.html" }, "geometry": { "type": "Point", "coordinates": [ -77.398936, 38.888478 ] } }
,
{ "type": "Feature", "id": 16, "properties": { "NAME": "Pleasant Valley Golf Course", "TYPE": "Semi-Private", "MAIL_ADD": "4715 Pleasant Valley Road", "CITY": "Chantilly", "ZIP": "20151", "PHONE": "703-222-7900", "COUNTY": "Fairfax", "COMMENT": "", "HYPERLINK": "http:\/\/www.pleasantvalleygc.com\/" }, "geometry": { "type": "Point", "coordinates": [ -77.476480, 38.887690 ] } }
,
{ "type": "Feature", "id": 17, "properties": { "NAME": "Jefferson District Golf Course", "TYPE": "Public", "MAIL_ADD": "7900 Lee Highway", "CITY": "Falls Church", "ZIP": "22042", "PHONE": "703-573-0444", "COUNTY": "Fairfax", "COMMENT": "", "HYPERLINK": "http:\/\/www.virginiagolf.com\/jefferson.html" }, "geometry": { "type": "Point", "coordinates": [ -77.215686, 38.878836 ] } }
,
{ "type": "Feature", "id": 18, "properties": { "NAME": "Evergreen Country Club", "TYPE": "Private", "MAIL_ADD": "15900 Berkeley Drive", "CITY": "Haymarket", "ZIP": "20169", "PHONE": "703-754-4421", "COUNTY": "Prince William", "COMMENT": "", "HYPERLINK": "http:\/\/www.virginiagolf.com\/evergreen.html" }, "geometry": { "type": "Point", "coordinates": [ -77.662316, 38.882264 ] } }
,
{ "type": "Feature", "id": 19, "properties": { "NAME": "Bull Run Golf Club", "TYPE": "Public", "MAIL_ADD": "3520 James Madison Highway", "CITY": "Haymarket", "ZIP": "20169", "PHONE": "703-753-7777", "COUNTY": "Prince William", "COMMENT": "", "HYPERLINK": "http:\/\/www.virginia.org\/site\/description.asp?AttrID=33393&MGrp=1&MCat=86&MItm=22&Rgn=10000&Page=2&Dir=F" }, "geometry": { "type": "Point", "coordinates": [ -77.642123, 38.879725 ] } }
,
{ "type": "Feature", "id": 20, "properties": { "NAME": "Fair Oaks Golf Park", "TYPE": "Public", "MAIL_ADD": "12908 Lee Jackson Memorial Hwy", "CITY": "Fairfax", "ZIP": "22033", "PHONE": "703-222-6600", "COUNTY": "Fairfax", "COMMENT": "", "HYPERLINK": "http:\/\/www.virginiagolf.com\/fairoaks.html" }, "geometry": { "type": "Point", "coordinates": [ -77.390867, 38.880652 ] } }
,
{ "type": "Feature", "id": 21, "properties": { "NAME": "Oak Marr Golf Course", "TYPE": "Public", "MAIL_ADD": "3200 Jermantown Road", "CITY": "Oakton", "ZIP": "22124", "PHONE": "703-255-5391", "COUNTY": "Fairfax", "COMMENT": "", "HYPERLINK": "http:\/\/www.virginia.org\/site\/description.asp?AttrID=16962&MGrp=1&MCat=86&MItm=22&Rgn=10000&Page=7&Dir=F" }, "geometry": { "type": "Point", "coordinates": [ -77.315945, 38.876604 ] } }
,
{ "type": "Feature", "id": 22, "properties": { "NAME": "Penderbrook Golf Course", "TYPE": "Semi-Private", "MAIL_ADD": "3700 Golf Trail Lane", "CITY": "Fairfax", "ZIP": "22033", "PHONE": "703-385-3700", "COUNTY": "Fairfax", "COMMENT": "", "HYPERLINK": "http:\/\/www.virginiagolf.com\/penderbrook.html" }, "geometry": { "type": "Point", "coordinates": [ -77.359063, 38.872897 ] } }
,
{ "type": "Feature", "id": 23, "properties": { "NAME": "Army-Navy Country Club", "TYPE": "Private", "MAIL_ADD": "1700 Army Navy Drive", "CITY": "Arlington", "ZIP": "22202", "PHONE": "703-979-5826", "COUNTY": "Arlington", "COMMENT": "", "HYPERLINK": "http:\/\/www.virginiagolf.com\/armynavyarlington.html" }, "geometry": { "type": "Point", "coordinates": [ -77.077982, 38.856169 ] } }
,
{ "type": "Feature", "id": 24, "properties": { "NAME": "Chantilly National Golf Course and Country Club", "TYPE": "Private", "MAIL_ADD": "14901 Braddock Road", "CITY": "Centreville", "ZIP": "20120", "PHONE": "703-631-9562", "COUNTY": "Fairfax", "COMMENT": "", "HYPERLINK": "http:\/\/www.virginiagolf.com\/chantillynational.html" }, "geometry": { "type": "Point", "coordinates": [ -77.467530, 38.862408 ] } }
,
{ "type": "Feature", "id": 25, "properties": { "NAME": "Army-Navy Country Club", "TYPE": "Private", "MAIL_ADD": "Pickett Road", "CITY": "Fairfax", "ZIP": "22030", "PHONE": "703-979-5826", "COUNTY": "Fairfax", "COMMENT": "", "HYPERLINK": "http:\/\/www.virginiagolf.com\/armynavyarlington.html" }, "geometry": { "type": "Point", "coordinates": [ -77.277565, 38.856122 ] } }
,
{ "type": "Feature", "id": 26, "properties": { "NAME": "Fairfax National Golf Course", "TYPE": "Semi-Private", "MAIL_ADD": "16850 Sudley Rd", "CITY": "Centreville", "ZIP": "20120", "PHONE": "703-631-9226", "COUNTY": "Fairfax", "COMMENT": "", "HYPERLINK": "http:\/\/www.virginiagolf.com\/fairfaxnational.html" }, "geometry": { "type": "Point", "coordinates": [ -77.528482, 38.843250 ] } }
,
{ "type": "Feature", "id": 27, "properties": { "NAME": "Pinecrest Golf Course", "TYPE": "Public", "MAIL_ADD": "6600 Little River Turnpike", "CITY": "Alexandria", "ZIP": "22312", "PHONE": "703-941-1061", "COUNTY": "Fairfax", "COMMENT": "", "HYPERLINK": "http:\/\/www.virginiagolf.com\/pinecrest.html" }, "geometry": { "type": "Point", "coordinates": [ -77.163439, 38.827611 ] } }
,
{ "type": "Feature", "id": 28, "properties": { "NAME": "Country Club of Fairfax", "TYPE": "Private", "MAIL_ADD": "5110 Ox Road", "CITY": "Fairfax", "ZIP": "22030", "PHONE": "703-273-3445", "COUNTY": "Fairfax", "COMMENT": "", "HYPERLINK": "http:\/\/www.virginiagolf.com\/ccfairfax.html" }, "geometry": { "type": "Point", "coordinates": [ -77.324315, 38.822544 ] } }
,
{ "type": "Feature", "id": 29, "properties": { "NAME": "Virginia Golf Center and Academy", "TYPE": "Public", "MAIL_ADD": "5801 Clifton Road", "CITY": "Clifton", "ZIP": "20124", "PHONE": "703-830-2400", "COUNTY": "Fairfax", "COMMENT": "9 hole Par 3", "HYPERLINK": "http:\/\/thegolfcourses.net\/golfcourses\/VA\/36425.htm" }, "geometry": { "type": "Point", "coordinates": [ -77.399012, 38.828742 ] } }
,
{ "type": "Feature", "id": 30, "properties": { "NAME": "Twin Lakes Golf Course", "TYPE": "Public", "MAIL_ADD": "6201 Union Mill Road", "CITY": "Clifton", "ZIP": "20124", "PHONE": "703-631-9099", "COUNTY": "Fairfax", "COMMENT": "", "HYPERLINK": "http:\/\/www.virginiagolf.com\/twinlakes.html" }, "geometry": { "type": "Point", "coordinates": [ -77.404108, 38.821438 ] } }
,
{ "type": "Feature", "id": 31, "properties": { "NAME": "Westfields Golf Club", "TYPE": "Semi-Private", "MAIL_ADD": "13940 Balmoral Greens Avenue", "CITY": "Clifton", "ZIP": "20124", "PHONE": "703-631-3300", "COUNTY": "Fairfax", "COMMENT": "", "HYPERLINK": "http:\/\/www.virginiagolf.com\/westfields.html" }, "geometry": { "type": "Point", "coordinates": [ -77.423331, 38.793937 ] } }
,
{ "type": "Feature", "id": 32, "properties": { "NAME": "Belle Haven Country Club", "TYPE": "Private", "MAIL_ADD": "6023 Fort Hunt Road", "CITY": "Alexandria", "ZIP": "22307", "PHONE": "703-329-2441", "COUNTY": "Fairfax", "COMMENT": "", "HYPERLINK": "http:\/\/www.virginiagolf.com\/bellehaven.html" }, "geometry": { "type": "Point", "coordinates": [ -77.057208, 38.786043 ] } }
,
{ "type": "Feature", "id": 33, "properties": { "NAME": "Virginia Oaks Golf Course", "TYPE": "Public", "MAIL_ADD": "7950 Virginia Oaks Drive", "CITY": "Gainesville", "ZIP": "20155", "PHONE": "703-754-4200", "COUNTY": "Prince William", "COMMENT": "", "HYPERLINK": "http:\/\/www.virginiagolf.com\/virginiaoaks.html" }, "geometry": { "type": "Point", "coordinates": [ -77.619109, 38.783849 ] } }
,
{ "type": "Feature", "id": 34, "properties": { "NAME": "Greendale Golf Course", "TYPE": "Public", "MAIL_ADD": "6700 Telegraph Road", "CITY": "Alexandria", "ZIP": "22310", "PHONE": "703-971-3788", "COUNTY": "Fairfax", "COMMENT": "", "HYPERLINK": "http:\/\/www.virginiagolf.com\/greendale.html" }, "geometry": { "type": "Point", "coordinates": [ -77.121480, 38.773398 ] } }
,
{ "type": "Feature", "id": 35, "properties": { "NAME": "Robert Trent Jones Golf Club", "TYPE": "Private", "MAIL_ADD": "One Turtle Point Drive", "CITY": "Lake Manassas", "ZIP": "20155", "PHONE": "703-754-7533", "COUNTY": "Prince William", "COMMENT": "", "HYPERLINK": "http:\/\/www.virginiagolf.com\/roberttrentjones.html" }, "geometry": { "type": "Point", "coordinates": [ -77.632634, 38.777686 ] } }
,
{ "type": "Feature", "id": 36, "properties": { "NAME": "Springfield Golf and Country Club", "TYPE": "Private", "MAIL_ADD": "8301 Old Keene Mill Road", "CITY": "Springfield", "ZIP": "22152", "PHONE": "730-451-8338", "COUNTY": "Fairfax", "COMMENT": "", "HYPERLINK": "http:\/\/www.virginiagolf.com\/springfield.html" }, "geometry": { "type": "Point", "coordinates": [ -77.225195, 38.776092 ] } }
,
{ "type": "Feature", "id": 37, "properties": { "NAME": "General's Ridge Golf Course", "TYPE": "Public", "MAIL_ADD": "9701 Manassas Drive", "CITY": "Manassas", "ZIP": "20111", "PHONE": "703-335-0777", "COUNTY": "Prince William", "COMMENT": "", "HYPERLINK": "http:\/\/www.virginiagolf.com\/generalsridge.html" }, "geometry": { "type": "Point", "coordinates": [ -77.427234, 38.773768 ] } }
,
{ "type": "Feature", "id": 38, "properties": { "NAME": "Burke Lake Golf Course", "TYPE": "Public", "MAIL_ADD": "7315 Ox Road", "CITY": "Fairfax Station", "ZIP": "22039", "PHONE": "703-221-0123", "COUNTY": "Fairfax", "COMMENT": "", "HYPERLINK": "http:\/\/www.virginiagolf.com\/burkelake.html" }, "geometry": { "type": "Point", "coordinates": [ -77.309284, 38.765273 ] } }
,
{ "type": "Feature", "id": 39, "properties": { "NAME": "Prince William Golf Course", "TYPE": "Public", "MAIL_ADD": "14631 Vint Hill Road", "CITY": "Nokesville", "ZIP": "20181", "PHONE": "703-754-7111", "COUNTY": "Prince William", "COMMENT": "", "HYPERLINK": "http:\/\/www.virginiagolf.com\/princewilliam.html" }, "geometry": { "type": "Point", "coordinates": [ -77.630517, 38.747622 ] } }
,
{ "type": "Feature", "id": 40, "properties": { "NAME": "Fort Belvoir North 36", "TYPE": "Military", "MAIL_ADD": "8450 Bevian Street", "CITY": "Fort Belvoir", "ZIP": "22060", "PHONE": "703-806-6017", "COUNTY": "Fairfax", "COMMENT": "", "HYPERLINK": "http:\/\/www.virginiagolf.com\/fortbelvoir.html" }, "geometry": { "type": "Point", "coordinates": [ -77.161969, 38.728466 ] } }
,
{ "type": "Feature", "id": 41, "properties": { "NAME": "Mount Vernon Country Club", "TYPE": "Private", "MAIL_ADD": "5111 Old Mill Road", "CITY": "Alexandria", "ZIP": "22309", "PHONE": "703-780-3565", "COUNTY": "Fairfax", "COMMENT": "", "HYPERLINK": "http:\/\/www.virginiagolf.com\/mountvernon.html" }, "geometry": { "type": "Point", "coordinates": [ -77.119227, 38.714532 ] } }
,
{ "type": "Feature", "id": 42, "properties": { "NAME": "Fort Belvoir South 9", "TYPE": "Military", "MAIL_ADD": "8450 Bevian Street", "CITY": "Fort Belvoir", "ZIP": "22060", "PHONE": "703-806-6017", "COUNTY": "Fairfax", "COMMENT": "", "HYPERLINK": "http:\/\/www.virginiagolf.com\/fortbelvoir.html" }, "geometry": { "type": "Point", "coordinates": [ -77.142924, 38.705522 ] } }
,
{ "type": "Feature", "id": 43, "properties": { "NAME": "Bristow Manor Golf Course", "TYPE": "Semi-Private", "MAIL_ADD": "11507 Valley View Drive", "CITY": "Bristow", "ZIP": "20136", "PHONE": "703-368-3558", "COUNTY": "Prince William", "COMMENT": "", "HYPERLINK": "http:\/\/www.virginiagolf.com\/bristowmanor.html" }, "geometry": { "type": "Point", "coordinates": [ -77.531909, 38.706540 ] } }
,
{ "type": "Feature", "id": 44, "properties": { "NAME": "Old Hickory Golf Club", "TYPE": "Public", "MAIL_ADD": "11921 Chanceford Drive", "CITY": "Woodbridge", "ZIP": "22192", "PHONE": "703-580-9000", "COUNTY": "Prince William", "COMMENT": "Estimated Boundary", "HYPERLINK": "http:\/\/www.virginia.org\/site\/description.asp?AttrID=33384&MGrp=1&MCat=86&MItm=22&Rgn=10000&SrchLocality=Prince%20William&Page=1&Dir=" }, "geometry": { "type": "Point", "coordinates": [ -77.344834, 38.691653 ] } }
,
{ "type": "Feature", "id": 45, "properties": { "NAME": "Lakeridge Golf Course", "TYPE": "Public", "MAIL_ADD": "12350 Cotton Mill Drive", "CITY": "Woodbridge", "ZIP": "22192", "PHONE": "703-494-5564", "COUNTY": "Prince William", "COMMENT": "", "HYPERLINK": "http:\/\/www.virginiagolf.com\/lakeridge.html" }, "geometry": { "type": "Point", "coordinates": [ -77.320195, 38.691112 ] } }
,
{ "type": "Feature", "id": 46, "properties": { "NAME": "Pohick Bay Golf Course", "TYPE": "Public", "MAIL_ADD": "10301 Gunston Road", "CITY": "Lorton", "ZIP": "22079", "PHONE": "703-339-8585", "COUNTY": "Fairfax", "COMMENT": "", "HYPERLINK": "http:\/\/www.virginiagolf.com\/pohickbay.html" }, "geometry": { "type": "Point", "coordinates": [ -77.198682, 38.681695 ] } }
,
{ "type": "Feature", "id": 47, "properties": { "NAME": "Osprey's Golf Course", "TYPE": "Public", "MAIL_ADD": "13401 Potomac Path Drive", "CITY": "Woodbridge", "ZIP": "22191", "PHONE": "703-497-1384", "COUNTY": "Prince William", "COMMENT": "", "HYPERLINK": "http:\/\/www.virginiagolf.com\/ospreys.html" }, "geometry": { "type": "Point", "coordinates": [ -77.238427, 38.656013 ] } }
,
{ "type": "Feature", "id": 48, "properties": { "NAME": "Fauquier Springs Country Club", "TYPE": "Private", "MAIL_ADD": "9236 Tournament Drive", "CITY": "Warrenton", "ZIP": "20186", "PHONE": "540-347-4209", "COUNTY": "Fauquier", "COMMENT": "", "HYPERLINK": "http:\/\/www.virginiagolf.com\/fauquiersprings.html" }, "geometry": { "type": "Point", "coordinates": [ -77.871534, 38.655601 ] } }
,
{ "type": "Feature", "id": 49, "properties": { "NAME": "Montclair Country Club", "TYPE": "Private", "MAIL_ADD": "16500 Edgewood Drive", "CITY": "Montclair", "ZIP": "22026", "PHONE": "703-670-4770", "COUNTY": "Prince William", "COMMENT": "", "HYPERLINK": "http:\/\/www.virginiagolf.com\/montclair.html" }, "geometry": { "type": "Point", "coordinates": [ -77.335065, 38.608740 ] } }
,
{ "type": "Feature", "id": 50, "properties": { "NAME": "Kastle Greens Golf Course", "TYPE": "Public", "MAIL_ADD": "11446 Rogues Road", "CITY": "Midland", "ZIP": "22728", "PHONE": "540-788-3144", "COUNTY": "Fauquier", "COMMENT": "", "HYPERLINK": "http:\/\/www.virginiagolf.com\/kastlegreens.html" }, "geometry": { "type": "Point", "coordinates": [ -77.717960, 38.558910 ] } }
,
{ "type": "Feature", "id": 51, "properties": { "NAME": "Augustine Golf and Country Club", "TYPE": "Semi-Private", "MAIL_ADD": "76 Monument Avenue", "CITY": "Stafford", "ZIP": "22554", "PHONE": "540-720-7374", "COUNTY": "Stafford", "COMMENT": "", "HYPERLINK": "http:\/\/www.virginiagolf.com\/augustine.html" }, "geometry": { "type": "Point", "coordinates": [ -77.475721, 38.442639 ] } }
,
{ "type": "Feature", "id": 52, "properties": { "NAME": "Gauntlet Golf Club at Curtis Park", "TYPE": "Private", "MAIL_ADD": "18 Fairway Drive", "CITY": "Fredericksburg", "ZIP": "22406", "PHONE": "540-752-0963", "COUNTY": "Stafford", "COMMENT": "", "HYPERLINK": "http:\/\/www.virginiagolf.com\/gauntlet.html" }, "geometry": { "type": "Point", "coordinates": [ -77.570633, 38.437170 ] } }
,
{ "type": "Feature", "id": 53, "properties": { "NAME": "Fredericksburg Country Club", "TYPE": "Private", "MAIL_ADD": "11031 Tidewater Trail", "CITY": "Fredericksburg", "ZIP": "22408", "PHONE": "540-373-4171", "COUNTY": "Spotsylvania", "COMMENT": "", "HYPERLINK": "http:\/\/www.virginiagolf.com\/fredericksburgcc.html" }, "geometry": { "type": "Point", "coordinates": [ -77.428937, 38.263882 ] } }
,
{ "type": "Feature", "id": 54, "properties": { "NAME": "Four Winds Golf Course", "TYPE": "Semi-Private", "MAIL_ADD": "P.O. Box 7", "CITY": "Rappahannock Academy", "ZIP": "22538", "PHONE": "804-742-5647", "COUNTY": "Caroline", "COMMENT": "", "HYPERLINK": "http:\/\/www.virginiagolf.com\/fourwinds.html" }, "geometry": { "type": "Point", "coordinates": [ -77.266004, 38.238930 ] } }
,
{ "type": "Feature", "id": 55, "properties": { "NAME": "Lee's Hill Golfers Club", "TYPE": "Public", "MAIL_ADD": "10200 Old Dominion Parkway", "CITY": "Fredericksburg", "ZIP": "22408", "PHONE": "540-891-0111", "COUNTY": "Spotsylvania", "COMMENT": "", "HYPERLINK": "http:\/\/www.virginiagolf.com\/leeshill.html" }, "geometry": { "type": "Point", "coordinates": [ -77.475942, 38.240070 ] } }
,
{ "type": "Feature", "id": 56, "properties": { "NAME": "Bushfield Golf Course", "TYPE": "Semi-Private", "MAIL_ADD": "P.O. Box 629", "CITY": "Callao", "ZIP": "22435", "PHONE": "804-472-2602", "COUNTY": "Westmoreland", "COMMENT": "Also known as Miller's Glen Country Club", "HYPERLINK": "http:\/\/www.virginiagolf.com\/bushfield.html" }, "geometry": { "type": "Point", "coordinates": [ -76.707188, 38.126889 ] } }
,
{ "type": "Feature", "id": 57, "properties": { "NAME": "Scotto's World of Golf", "TYPE": "Public", "MAIL_ADD": "Route 250", "CITY": "Waynesboro", "ZIP": "22980", "PHONE": "540-943-7283", "COUNTY": "Waynesboro", "COMMENT": "Estimated Boundary", "HYPERLINK": "" }, "geometry": { "type": "Point", "coordinates": [ -78.865447, 38.064814 ] } }
,
{ "type": "Feature", "id": 58, "properties": { "NAME": "Meadow Creek Golf Course at Pen Park", "TYPE": "Public", "MAIL_ADD": "1400 Pen Park Road", "CITY": "Charlottesville", "ZIP": "22901", "PHONE": "434-977-0615", "COUNTY": "Albemarle", "COMMENT": "", "HYPERLINK": "http:\/\/www.virginiagolf.com\/meadowcreek.html" }, "geometry": { "type": "Point", "coordinates": [ -78.452010, 38.051351 ] } }
,
{ "type": "Feature", "id": 59, "properties": { "NAME": "Keswick", "TYPE": "Private", "MAIL_ADD": "701 Country Club Drive", "CITY": "Keswick", "ZIP": "22947", "PHONE": "434-979-5436", "COUNTY": "Albemarle", "COMMENT": "", "HYPERLINK": "http:\/\/www.virginiagolf.com\/keswick.html" }, "geometry": { "type": "Point", "coordinates": [ -78.359794, 38.013902 ] } }
,
{ "type": "Feature", "id": 60, "properties": { "NAME": "Village Green Golf Course", "TYPE": "Public", "MAIL_ADD": "P.O. Box 579", "CITY": "Callao", "ZIP": "22435", "PHONE": "804-529-6332", "COUNTY": "Northumberland", "COMMENT": "", "HYPERLINK": "http:\/\/www.virginiagolf.com\/villagegreen.html" }, "geometry": { "type": "Point", "coordinates": [ -76.559679, 37.965428 ] } }
,
{ "type": "Feature", "id": 61, "properties": { "NAME": "Quinton Oaks Golf Course", "TYPE": "Semi-Private", "MAIL_ADD": "P.O. Box 247", "CITY": "Callao", "ZIP": "22435", "PHONE": "804-529-5367", "COUNTY": "Northumberland", "COMMENT": "", "HYPERLINK": "http:\/\/www.virginiagolf.com\/quintonoaksgc.html" }, "geometry": { "type": "Point", "coordinates": [ -76.571135, 37.942826 ] } }
,
{ "type": "Feature", "id": 62, "properties": { "NAME": "Royal Virginia Golf Course", "TYPE": "Public", "MAIL_ADD": "3181 Dukes Road", "CITY": "Hadensville", "ZIP": "23093", "PHONE": "434-457-2041", "COUNTY": "Goochland", "COMMENT": "", "HYPERLINK": "http:\/\/www.virginiagolf.com\/royalva.html" }, "geometry": { "type": "Point", "coordinates": [ -78.007833, 37.836120 ] } }
,
{ "type": "Feature", "id": 63, "properties": { "NAME": "Eastern Shore Yacht and Country Club", "TYPE": "Private", "MAIL_ADD": "14421 Country Club Road", "CITY": "Melfa", "ZIP": "23410", "PHONE": "757-787-4519", "COUNTY": "Accomack", "COMMENT": "", "HYPERLINK": "http:\/\/www.virginiagolf.com\/easternshore.html" }, "geometry": { "type": "Point", "coordinates": [ -75.818994, 37.655210 ] } }
,
{ "type": "Feature", "id": 64, "properties": { "NAME": "Crossings Golf Course", "TYPE": "Public", "MAIL_ADD": "800 Virginia Center Parkway", "CITY": "Glen Allen", "ZIP": "23060", "PHONE": "804-261-0000", "COUNTY": "Henrico", "COMMENT": "", "HYPERLINK": "http:\/\/www.virginiagolf.com\/crossings.html" }, "geometry": { "type": "Point", "coordinates": [ -77.441114, 37.661494 ] } }
,
{ "type": "Feature", "id": 65, "properties": { "NAME": "Spring Lake Golf Course", "TYPE": "Public", "MAIL_ADD": "2019 Mountain Road", "CITY": "Glen Allen", "ZIP": "23060", "PHONE": "Not available", "COUNTY": "Henrico", "COMMENT": "", "HYPERLINK": "http:\/\/www.virginiagolf.com\/springlake.html" }, "geometry": { "type": "Point", "coordinates": [ -77.482278, 37.656413 ] } }
,
{ "type": "Feature", "id": 66, "properties": { "NAME": "Jefferson Lakeside Country Club", "TYPE": "Private", "MAIL_ADD": "1700 Lakeside Drive", "CITY": "Richmond", "ZIP": "23228", "PHONE": "804-266-2382", "COUNTY": "Henrico", "COMMENT": "", "HYPERLINK": "http:\/\/www.virginiagolf.com\/jeffersonlakeside.html" }, "geometry": { "type": "Point", "coordinates": [ -77.469662, 37.625985 ] } }
,
{ "type": "Feature", "id": 67, "properties": { "NAME": "Winton Country Club", "TYPE": "Semi-Private", "MAIL_ADD": "P.O. Box 8, Route 1", "CITY": "Clifford", "ZIP": "24533", "PHONE": "434-946-7336", "COUNTY": "Amherst", "COMMENT": "", "HYPERLINK": "http:\/\/www.virginiagolf.com\/wintoncc.html" }, "geometry": { "type": "Point", "coordinates": [ -79.027768, 37.636407 ] } }
,
{ "type": "Feature", "id": 68, "properties": { "NAME": "Belmont Golf Course", "TYPE": "Public", "MAIL_ADD": "1600 Hilliard Road", "CITY": "Richmond", "ZIP": "23228", "PHONE": "804-501-4653", "COUNTY": "Henrico", "COMMENT": "", "HYPERLINK": "http:\/\/www.virginiagolf.com\/belmont.html" }, "geometry": { "type": "Point", "coordinates": [ -77.463381, 37.616286 ] } }
,
{ "type": "Feature", "id": 69, "properties": { "NAME": "Richmond Country Club", "TYPE": "Private", "MAIL_ADD": "P.O. Box 37", "CITY": "Manakin-Sabot", "ZIP": "23103", "PHONE": "804-784-5663", "COUNTY": "Goochland", "COMMENT": "", "HYPERLINK": "http:\/\/www.virginiagolf.com\/richmondcc.html" }, "geometry": { "type": "Point", "coordinates": [ -77.683498, 37.606559 ] } }
,
{ "type": "Feature", "id": 70, "properties": { "NAME": "Foundry Golf Club", "TYPE": "Private", "MAIL_ADD": "3225 Lees Landing Road'", "CITY": "Powhatan", "ZIP": "23139", "PHONE": "804-598-9898", "COUNTY": "Powhatan", "COMMENT": "", "HYPERLINK": "http:\/\/www.virginiagolf.com\/foundry.html" }, "geometry": { "type": "Point", "coordinates": [ -77.830832, 37.593203 ] } }
,
{ "type": "Feature", "id": 71, "properties": { "NAME": "West Point Country Club", "TYPE": "Private", "MAIL_ADD": "P.O. Box 270", "CITY": "West Point", "ZIP": "23181", "PHONE": "804-843-3168", "COUNTY": "King William", "COMMENT": "", "HYPERLINK": "http:\/\/www.virginiagolf.com\/westpoint.html" }, "geometry": { "type": "Point", "coordinates": [ -76.825847, 37.560674 ] } }
,
{ "type": "Feature", "id": 72, "properties": { "NAME": "Country Club of Virginia Westhampton", "TYPE": "Private", "MAIL_ADD": "6031 Saint Andrews Lane", "CITY": "Richmond", "ZIP": "23233", "PHONE": "804-287-1302", "COUNTY": "Richmond City", "COMMENT": "", "HYPERLINK": "http:\/\/www.virginiagolf.com\/ccofvirginia.html" }, "geometry": { "type": "Point", "coordinates": [ -77.531240, 37.571002 ] } }
,
{ "type": "Feature", "id": 73, "properties": { "NAME": "Country Club of Virginia Tuckahoe", "TYPE": "Private", "MAIL_ADD": "709 South Gaskins Road", "CITY": "Richmond", "ZIP": "23233", "PHONE": "804-287-1301", "COUNTY": "Henrico", "COMMENT": "", "HYPERLINK": "http:\/\/www.virginiagolf.com\/ccofvirginia.html" }, "geometry": { "type": "Point", "coordinates": [ -77.625511, 37.573133 ] } }
,
{ "type": "Feature", "id": 74, "properties": { "NAME": "Country Club of Virginia James River Course", "TYPE": "Private", "MAIL_ADD": "709 South Gaskins Road", "CITY": "Richmond", "ZIP": "23233", "PHONE": "804-287-1301", "COUNTY": "Henrico", "COMMENT": "", "HYPERLINK": "http:\/\/www.virginiagolf.com\/ccofvirginia.html" }, "geometry": { "type": "Point", "coordinates": [ -77.611528, 37.570298 ] } }
,
{ "type": "Feature", "id": 75, "properties": { "NAME": "Highland Springs Golf Course", "TYPE": "Public", "MAIL_ADD": "300 Lee Avenue", "CITY": "Highland Springs", "ZIP": "23075", "PHONE": "804-737-4716", "COUNTY": "Henrico", "COMMENT": "", "HYPERLINK": "http:\/\/www.virginiagolf.com\/highlandsprings.html" }, "geometry": { "type": "Point", "coordinates": [ -77.323695, 37.563621 ] } }
,
{ "type": "Feature", "id": 76, "properties": { "NAME": "Glenwood Golf Course", "TYPE": "Semi-Private", "MAIL_ADD": "3100 Creighton Road", "CITY": "Richmond", "ZIP": "23223", "PHONE": "804-226-1793", "COUNTY": "Henrico", "COMMENT": "", "HYPERLINK": "http:\/\/www.virginiagolf.com\/glenwood.html" }, "geometry": { "type": "Point", "coordinates": [ -77.390400, 37.552898 ] } }
,
{ "type": "Feature", "id": 77, "properties": { "NAME": "Willow Oaks Country Club", "TYPE": "Private", "MAIL_ADD": "6228 Forest Hill Avenue", "CITY": "Richmond", "ZIP": "23225", "PHONE": "804-272-1455", "COUNTY": "Richmond City", "COMMENT": "", "HYPERLINK": "http:\/\/www.virginiagolf.com\/willowoaks.html" }, "geometry": { "type": "Point", "coordinates": [ -77.505334, 37.539168 ] } }
,
{ "type": "Feature", "id": 78, "properties": { "NAME": "Salisbury Country Club", "TYPE": "Private", "MAIL_ADD": "13620 Salisbury Road", "CITY": "Midlothian", "ZIP": "23113", "PHONE": "804-794-8255", "COUNTY": "Chesterfield", "COMMENT": "", "HYPERLINK": "http:\/\/www.virginiagolf.com\/salisbury.html" }, "geometry": { "type": "Point", "coordinates": [ -77.655159, 37.528007 ] } }
,
{ "type": "Feature", "id": 79, "properties": { "NAME": "Windy Hill Sports", "TYPE": "Public", "MAIL_ADD": "16500 Midlothian Turnpike", "CITY": "Midlothian", "ZIP": "23140", "PHONE": "804-794-7193", "COUNTY": "Chesterfield", "COMMENT": "", "HYPERLINK": "http:\/\/www.virginiagolf.com\/windyhill.html" }, "geometry": { "type": "Point", "coordinates": [ -77.717190, 37.511454 ] } }
,
{ "type": "Feature", "id": 80, "properties": { "NAME": "Mill Quarter Plantation Golf Course", "TYPE": "Public", "MAIL_ADD": "1525 Mill Quarter Plantation Road", "CITY": "Powhatan", "ZIP": "23139", "PHONE": "804-598-4221", "COUNTY": "Powhatan", "COMMENT": "", "HYPERLINK": "http:\/\/www.virginiagolf.com\/millquarter.html" }, "geometry": { "type": "Point", "coordinates": [ -77.922515, 37.497471 ] } }
,
{ "type": "Feature", "id": 81, "properties": { "NAME": "Meadowbrook Country Club", "TYPE": "Private", "MAIL_ADD": "3700 Cogbill Road", "CITY": "Richmond", "ZIP": "23234", "PHONE": "804-275-9189", "COUNTY": "Chesterfield", "COMMENT": "", "HYPERLINK": "http:\/\/www.virginiagolf.com\/meadowbrookcc.html" }, "geometry": { "type": "Point", "coordinates": [ -77.466683, 37.447409 ] } }
,
{ "type": "Feature", "id": 82, "properties": { "NAME": "Brandermill Country Club", "TYPE": "Private", "MAIL_ADD": "P.O. Box 1990", "CITY": "Midlothian", "ZIP": "23112", "PHONE": "804-744-1189", "COUNTY": "Chesterfield", "COMMENT": "", "HYPERLINK": "http:\/\/www.virginiagolf.com\/brandermill.html" }, "geometry": { "type": "Point", "coordinates": [ -77.649738, 37.436589 ] } }
,
{ "type": "Feature", "id": 83, "properties": { "NAME": "Colonial Golf Course", "TYPE": "Public", "MAIL_ADD": "P.O. Box 356", "CITY": "Lanexa", "ZIP": "23187", "PHONE": "757-566-1600", "COUNTY": "James City", "COMMENT": "", "HYPERLINK": "http:\/\/www.virginia.org\/site\/description.asp?AttrID=11839&MGrp=1&MCat=86&MItm=22&Rgn=10000&StrtLtr=C" }, "geometry": { "type": "Point", "coordinates": [ -76.876843, 37.393247 ] } }
,
{ "type": "Feature", "id": 84, "properties": { "NAME": "Kiskiack Golf Course", "TYPE": "Resort", "MAIL_ADD": "8104 Club Drive", "CITY": "Williamsburg", "ZIP": "23188", "PHONE": "757-566-2200", "COUNTY": "James City", "COMMENT": "", "HYPERLINK": "http:\/\/www.virginia.org\/site\/description.asp?AttrID=26634&MGrp=1&MCat=86&MItm=22&Rgn=10000&StrtLtr=K" }, "geometry": { "type": "Point", "coordinates": [ -76.749111, 37.388157 ] } }
,
{ "type": "Feature", "id": 85, "properties": { "NAME": "Birkdale Golf Course", "TYPE": "Semi-Private", "MAIL_ADD": "8511 Royal Birkdale Drive", "CITY": "Chesterfield", "ZIP": "23832", "PHONE": "804-739-8800", "COUNTY": "Chesterfield", "COMMENT": "", "HYPERLINK": "http:\/\/www.virginiagolf.com\/birkdale.html" }, "geometry": { "type": "Point", "coordinates": [ -77.666412, 37.386676 ] } }
,
{ "type": "Feature", "id": 86, "properties": { "NAME": "Ivy Hill Golf Course", "TYPE": "Semi-Private", "MAIL_ADD": "1327 Ivy Hill Avenue", "CITY": "Forest", "ZIP": "24551", "PHONE": "434-525-2680", "COUNTY": "Bedford", "COMMENT": "", "HYPERLINK": "http:\/\/www.virginiagolf.com\/ivyhill.html" }, "geometry": { "type": "Point", "coordinates": [ -79.320745, 37.397234 ] } }
,
{ "type": "Feature", "id": 87, "properties": { "NAME": "River's Bend Golf Course", "TYPE": "Public", "MAIL_ADD": "11700 Hogan's Alley", "CITY": "Chester", "ZIP": "23836", "PHONE": "804-530-1000", "COUNTY": "Chesterfield", "COMMENT": "", "HYPERLINK": "http:\/\/www.virginia.org\/site\/description.asp?AttrID=11851&MGrp=1&MCat=86&MItm=22&Rgn=10000&StrtLtr=R" }, "geometry": { "type": "Point", "coordinates": [ -77.353703, 37.368133 ] } }
,
{ "type": "Feature", "id": 88, "properties": { "NAME": "Colonial Hills Golf Course", "TYPE": "Public", "MAIL_ADD": "1990 Gumtree Road", "CITY": "Forest", "ZIP": "24551", "PHONE": "434-525-3954", "COUNTY": "Bedford", "COMMENT": "", "HYPERLINK": "http:\/\/www.virginiagolf.com\/colonialhills.html" }, "geometry": { "type": "Point", "coordinates": [ -79.274528, 37.381435 ] } }
,
{ "type": "Feature", "id": 89, "properties": { "NAME": "Bermuda Golf Course", "TYPE": "Public", "MAIL_ADD": "14101 Ramblewood Road", "CITY": "Chester", "ZIP": "23831", "PHONE": "804-530-3800", "COUNTY": "Chesterfield", "COMMENT": "", "HYPERLINK": "http:\/\/www.virginiagolf.com\/bermuda.html" }, "geometry": { "type": "Point", "coordinates": [ -77.364896, 37.342757 ] } }
,
{ "type": "Feature", "id": 90, "properties": { "NAME": "Amelia Golf and Country Club", "TYPE": "Semi-Private", "MAIL_ADD": "9711 Wayside Avenue", "CITY": "Amelia", "ZIP": "23002", "PHONE": "804-561-2640", "COUNTY": "Amelia", "COMMENT": "", "HYPERLINK": "http:\/\/www.virginiagolf.com\/amelia.html" }, "geometry": { "type": "Point", "coordinates": [ -77.965386, 37.353360 ] } }
,
{ "type": "Feature", "id": 91, "properties": { "NAME": "Highlands Golfers Club", "TYPE": "Public", "MAIL_ADD": "8136 Highland Glen Drive", "CITY": "Chesterfield", "ZIP": "23838", "PHONE": "804-796-4800", "COUNTY": "Chesterfield", "COMMENT": "", "HYPERLINK": "http:\/\/www.virginiagolf.com\/highlands.html" }, "geometry": { "type": "Point", "coordinates": [ -77.528822, 37.330551 ] } }
,
{ "type": "Feature", "id": 92, "properties": { "NAME": "Giles Country Club", "TYPE": "Private", "MAIL_ADD": "500 Fort Branch Road", "CITY": "Pearisburg", "ZIP": "24134", "PHONE": "540-921-1099", "COUNTY": "Giles", "COMMENT": "", "HYPERLINK": "http:\/\/www.virginiagolf.com\/giles.html" }, "geometry": { "type": "Point", "coordinates": [ -80.722595, 37.319238 ] } }
,
{ "type": "Feature", "id": 93, "properties": { "NAME": "Deer Cove Golf Course", "TYPE": "Military", "MAIL_ADD": "108 Sanda Avenue", "CITY": "Williamsburg", "ZIP": "23185", "PHONE": "757-887-7101", "COUNTY": "York", "COMMENT": "", "HYPERLINK": "http:\/\/thegolfcourses.net\/golfcourses\/VA\/17830.htm" }, "geometry": { "type": "Point", "coordinates": [ -76.593423, 37.282543 ] } }
,
{ "type": "Feature", "id": 94, "properties": { "NAME": "Cedar Hills Golf Course", "TYPE": "Public", "MAIL_ADD": "198 Watson Drive", "CITY": "Lynchburg", "ZIP": "24501", "PHONE": "434-239-1512", "COUNTY": "Campbell", "COMMENT": "", "HYPERLINK": "http:\/\/www.virginiagolf.com\/cedarhills.html" }, "geometry": { "type": "Point", "coordinates": [ -79.192328, 37.311504 ] } }
,
{ "type": "Feature", "id": 95, "properties": { "NAME": "Williamsburg National Golf Course", "TYPE": "Semi-Private", "MAIL_ADD": "3700 Centerville Road", "CITY": "Williamsburg", "ZIP": "23188", "PHONE": "757-258-9642", "COUNTY": "James City", "COMMENT": "", "HYPERLINK": "http:\/\/www.virginiagolf.com\/williamsburgnational.html" }, "geometry": { "type": "Point", "coordinates": [ -76.805125, 37.268756 ] } }
,
{ "type": "Feature", "id": 96, "properties": { "NAME": "Lake Chesdin Golf Course", "TYPE": "Public", "MAIL_ADD": "21801 Lake Chesdin Parkway", "CITY": "Chesterfield", "ZIP": "23838", "PHONE": "804-590-9900", "COUNTY": "Chesterfield", "COMMENT": "", "HYPERLINK": "http:\/\/www.chesdin.com\/recreation.htm" }, "geometry": { "type": "Point", "coordinates": [ -77.645083, 37.277660 ] } }
,
{ "type": "Feature", "id": 97, "properties": { "NAME": "London Downs Golf Club", "TYPE": "Semi-Private", "MAIL_ADD": "1400 New London Road", "CITY": "Forest", "ZIP": "24551", "PHONE": "434-525-4653", "COUNTY": "Bedford", "COMMENT": "", "HYPERLINK": "http:\/\/www.virginiagolf.com\/londondowns.html" }, "geometry": { "type": "Point", "coordinates": [ -79.307220, 37.298343 ] } }
,
{ "type": "Feature", "id": 98, "properties": { "NAME": "Golden Horseshoe Golf Course", "TYPE": "Resort", "MAIL_ADD": "401 South England Street", "CITY": "Williamsburg", "ZIP": "23185", "PHONE": "757-220-7767", "COUNTY": "Williamsburg", "COMMENT": "", "HYPERLINK": "http:\/\/www.virginiagolf.com\/goldenhorseshoe.html" }, "geometry": { "type": "Point", "coordinates": [ -76.691440, 37.261162 ] } }
,
{ "type": "Feature", "id": 99, "properties": { "NAME": "Williamsburg Country Club", "TYPE": "Private", "MAIL_ADD": "P.O. Box 404", "CITY": "Williamsburg", "ZIP": "23187", "PHONE": "757-221-0573", "COUNTY": "York", "COMMENT": "", "HYPERLINK": "http:\/\/www.virginiagolf.com\/williamsburg.html" }, "geometry": { "type": "Point", "coordinates": [ -76.642580, 37.243589 ] } }
,
{ "type": "Feature", "id": 100, "properties": { "NAME": "Kingsmill Woods Golf Course", "TYPE": "Resort", "MAIL_ADD": "1010 Kingsmill Road", "CITY": "Williamsburg", "ZIP": "23691", "PHONE": "757-253-3906", "COUNTY": "James City", "COMMENT": "", "HYPERLINK": "http:\/\/www.virginiagolf.com\/kingsmill.html" }, "geometry": { "type": "Point", "coordinates": [ -76.634831, 37.227654 ] } }
,
{ "type": "Feature", "id": 101, "properties": { "NAME": "Richwood Golf Club", "TYPE": "Semi-Private", "MAIL_ADD": "P.O. Box 215, Hockman Pike Road", "CITY": "Bluefield", "ZIP": "24605", "PHONE": "276-322-4342", "COUNTY": "Tazewell", "COMMENT": "", "HYPERLINK": "http:\/\/www.virginiagolf.com\/richwood.html" }, "geometry": { "type": "Point", "coordinates": [ -81.290141, 37.237728 ] } }
,
{ "type": "Feature", "id": 102, "properties": { "NAME": "Newport News Golf Course", "TYPE": "Public", "MAIL_ADD": "901 Club House Way", "CITY": "Newport News", "ZIP": "23608", "PHONE": "757-886-7925", "COUNTY": "York", "COMMENT": "", "HYPERLINK": "http:\/\/www.virginiagolf.com\/needleseye.html" }, "geometry": { "type": "Point", "coordinates": [ -76.525986, 37.183217 ] } }
,
{ "type": "Feature", "id": 103, "properties": { "NAME": "Lee Park Golf Course", "TYPE": "Public", "MAIL_ADD": "3108 Homestead Drive", "CITY": "Petersburg", "ZIP": "23805", "PHONE": "804-733-5667", "COUNTY": "Petersburg", "COMMENT": "", "HYPERLINK": "http:\/\/www.virginiagolf.com\/leepark.html" }, "geometry": { "type": "Point", "coordinates": [ -77.397575, 37.188792 ] } }
,
{ "type": "Feature", "id": 104, "properties": { "NAME": "Prince George Golf Course", "TYPE": "Semi-Private", "MAIL_ADD": "8399 Golf Course Drive", "CITY": "Disputanta", "ZIP": "23842", "PHONE": "804-991-2251", "COUNTY": "Prince George", "COMMENT": "", "HYPERLINK": "http:\/\/www.virginiagolf.com\/princegeorge.html" }, "geometry": { "type": "Point", "coordinates": [ -77.253150, 37.136242 ] } }
,
{ "type": "Feature", "id": 105, "properties": { "NAME": "Round Meadows Country Club", "TYPE": "Private", "MAIL_ADD": "1111 Round Meadow Drive", "CITY": "Christiansburg", "ZIP": "24073", "PHONE": "540-382-3732", "COUNTY": "Montgomery", "COMMENT": "", "HYPERLINK": "http:\/\/www.virginiagolf.com\/roundmeadows.html" }, "geometry": { "type": "Point", "coordinates": [ -80.441697, 37.143324 ] } }
,
{ "type": "Feature", "id": 106, "properties": { "NAME": "The Hamptons Golf Course", "TYPE": "Public", "MAIL_ADD": "320 Butler Farm Road", "CITY": "Hampton", "ZIP": "23666", "PHONE": "757-766-9148", "COUNTY": "Hampton", "COMMENT": "", "HYPERLINK": "http:\/\/www.virginia.org\/site\/description.asp?AttrID=18963&MGrp=1&MCat=86&MItm=22&Rgn=10000&StrtLtr=H" }, "geometry": { "type": "Point", "coordinates": [ -76.405523, 37.069575 ] } }
,
{ "type": "Feature", "id": 107, "properties": { "NAME": "James River Country Club", "TYPE": "Private", "MAIL_ADD": "1500 Country Club Road", "CITY": "Newport News", "ZIP": "23606", "PHONE": "757-596-3322", "COUNTY": "Newport News", "COMMENT": "", "HYPERLINK": "http:\/\/www.virginiagolf.com\/jamesriver.html" }, "geometry": { "type": "Point", "coordinates": [ -76.504748, 37.059256 ] } }
,
{ "type": "Feature", "id": 108, "properties": { "NAME": "Woodlands Golf Course", "TYPE": "Public", "MAIL_ADD": "9 Woodland Road", "CITY": "Hampton", "ZIP": "23663", "PHONE": "757-727-1195", "COUNTY": "Hampton", "COMMENT": "Hampton Golf Association", "HYPERLINK": "http:\/\/www.virginiagolf.com\/woodlands.html" }, "geometry": { "type": "Point", "coordinates": [ -76.328334, 37.027913 ] } }
,
{ "type": "Feature", "id": 109, "properties": { "NAME": "Ocean View Golf Course", "TYPE": "Public", "MAIL_ADD": "9610 Norfolk Avenue", "CITY": "Norfolk", "ZIP": "23503", "PHONE": "757-480-2094", "COUNTY": "Norfolk", "COMMENT": "", "HYPERLINK": "http:\/\/www.virginiagolf.com\/oceanview.html" }, "geometry": { "type": "Point", "coordinates": [ -76.250292, 36.946056 ] } }
,
{ "type": "Feature", "id": 110, "properties": { "NAME": "Smithfield Downs Golf Course", "TYPE": "Public", "MAIL_ADD": "20081 Brewers Neck", "CITY": "Smithfield", "ZIP": "23430", "PHONE": "757-538-4100", "COUNTY": "Isle of Wight", "COMMENT": "", "HYPERLINK": "http:\/\/www.virginiagolf.com\/smithfielddowns.html" }, "geometry": { "type": "Point", "coordinates": [ -76.579929, 36.941773 ] } }
,
{ "type": "Feature", "id": 111, "properties": { "NAME": "Sewells Point Golf Course", "TYPE": "Military", "MAIL_ADD": "Naval Station Building CA99", "CITY": "Norfolk", "ZIP": "23511", "PHONE": "757-887-4323", "COUNTY": "Norfolk", "COMMENT": "", "HYPERLINK": "http:\/\/www.virginiagolf.com\/sewellspoint.html" }, "geometry": { "type": "Point", "coordinates": [ -76.288128, 36.923012 ] } }
,
{ "type": "Feature", "id": 112, "properties": { "NAME": "Bayville Golf Club", "TYPE": "Private", "MAIL_ADD": "4137 First Court Road", "CITY": "Virginia Beach", "ZIP": "23455", "PHONE": "757-460-2616", "COUNTY": "Virginia Beach", "COMMENT": "", "HYPERLINK": "http:\/\/www.virginiagolf.com\/bayville.html" }, "geometry": { "type": "Point", "coordinates": [ -76.111382, 36.900961 ] } }
,
{ "type": "Feature", "id": 113, "properties": { "NAME": "Great Oaks Country Club", "TYPE": "Private", "MAIL_ADD": "P.O. Box 536", "CITY": "Floyd", "ZIP": "24091", "PHONE": "540-745-2189", "COUNTY": "Floyd", "COMMENT": "", "HYPERLINK": "http:\/\/www.virginiagolf.com\/greatoaks.html" }, "geometry": { "type": "Point", "coordinates": [ -80.270848, 36.930322 ] } }
,
{ "type": "Feature", "id": 114, "properties": { "NAME": "Cypress Point Golf Course", "TYPE": "Semi-Private", "MAIL_ADD": "5340 Club Head Road", "CITY": "Virginia Beach", "ZIP": "23455", "PHONE": "757-490-8822", "COUNTY": "Virginia Beach", "COMMENT": "", "HYPERLINK": "http:\/\/www.virginiagolf.com\/cypresspoint.html" }, "geometry": { "type": "Point", "coordinates": [ -76.161842, 36.880012 ] } }
,
{ "type": "Feature", "id": 115, "properties": { "NAME": "Lake Wright", "TYPE": "Public", "MAIL_ADD": "6282 Northampton Boulevard", "CITY": "Norfolk", "ZIP": "23502", "PHONE": "757-459-2255", "COUNTY": "Norfolk", "COMMENT": "", "HYPERLINK": "http:\/\/www.virginiagolf.com\/lakewright.html" }, "geometry": { "type": "Point", "coordinates": [ -76.197260, 36.880779 ] } }
,
{ "type": "Feature", "id": 116, "properties": { "NAME": "Princess Anne Country Club", "TYPE": "Private", "MAIL_ADD": "3800 Pacific Avenue", "CITY": "Virginia Beach", "ZIP": "23451", "PHONE": "757-422-3360", "COUNTY": "Virginia Beach", "COMMENT": "", "HYPERLINK": "http:\/\/www.virginiagolf.com\/princessanne.html" }, "geometry": { "type": "Point", "coordinates": [ -75.989071, 36.867233 ] } }
,
{ "type": "Feature", "id": 117, "properties": { "NAME": "Cavalier Golf and Yacht Club", "TYPE": "Private", "MAIL_ADD": "1052 Cardinal Road", "CITY": "Virginia Beach", "ZIP": "23451", "PHONE": "757-428-6161", "COUNTY": "Virginia Beach", "COMMENT": "", "HYPERLINK": "http:\/\/www.virginiagolf.com\/cavalier.html" }, "geometry": { "type": "Point", "coordinates": [ -76.001373, 36.860895 ] } }
,
{ "type": "Feature", "id": 118, "properties": { "NAME": "Saltville Golf Club", "TYPE": "Public", "MAIL_ADD": "1 Stadium Drive", "CITY": "Saltville", "ZIP": "24370", "PHONE": "276-496-7779", "COUNTY": "Smyth", "COMMENT": "", "HYPERLINK": "http:\/\/www.virginiagolf.com\/saltville.html" }, "geometry": { "type": "Point", "coordinates": [ -81.762267, 36.873713 ] } }
,
{ "type": "Feature", "id": 119, "properties": { "NAME": "Sleepy Hole Golf Course", "TYPE": "Public", "MAIL_ADD": "P.O. Box 5010", "CITY": "Suffolk", "ZIP": "23435", "PHONE": "757-538-4100", "COUNTY": "Suffolk", "COMMENT": "", "HYPERLINK": "http:\/\/www.virginiagolf.com\/sleepyhole.html" }, "geometry": { "type": "Point", "coordinates": [ -76.517760, 36.839159 ] } }
,
{ "type": "Feature", "id": 120, "properties": { "NAME": "Owl's Creek Golf Course", "TYPE": "Public", "MAIL_ADD": "411 South Birdneck Road", "CITY": "Virginia Beach", "ZIP": "23451", "PHONE": "757-428-2800", "COUNTY": "Virginia Beach", "COMMENT": "", "HYPERLINK": "http:\/\/www.virginiagolf.com\/owlscreek.html" }, "geometry": { "type": "Point", "coordinates": [ -76.001044, 36.827009 ] } }
,
{ "type": "Feature", "id": 121, "properties": { "NAME": "Kempsville Greens Municipal Golf Course", "TYPE": "Public", "MAIL_ADD": "4840 Princess Anne Road", "CITY": "Virginia Beach", "ZIP": "23462", "PHONE": "757-474-8441", "COUNTY": "Virginia Beach", "COMMENT": "", "HYPERLINK": "http:\/\/www.virginiagolf.com\/kempsville.html" }, "geometry": { "type": "Point", "coordinates": [ -76.143774, 36.823132 ] } }
,
{ "type": "Feature", "id": 122, "properties": { "NAME": "Bow Creek Municipal Golf Course", "TYPE": "Public", "MAIL_ADD": "3425 Club House Road", "CITY": "Virginia Beach", "ZIP": "23452", "PHONE": "757-431-3763", "COUNTY": "Virginia Beach", "COMMENT": "", "HYPERLINK": "http:\/\/www.virginiagolf.com\/bowcreek.html" }, "geometry": { "type": "Point", "coordinates": [ -76.089463, 36.820740 ] } }
,
{ "type": "Feature", "id": 123, "properties": { "NAME": "Aeropines Golf Course", "TYPE": "Military", "MAIL_ADD": "Building 3581 Naval Air Station Oceana", "CITY": "Virginia Beach", "ZIP": "23460", "PHONE": "757-433-2866", "COUNTY": "Virginia Beach", "COMMENT": "", "HYPERLINK": "http:\/\/www.virginiagolf.com\/aeropines.html" }, "geometry": { "type": "Point", "coordinates": [ -76.027435, 36.798532 ] } }
,
{ "type": "Feature", "id": 124, "properties": { "NAME": "Red Wing Lake Golf Course", "TYPE": "Public", "MAIL_ADD": "1080 Prosperity Road", "CITY": "Virginia Beach", "ZIP": "23451", "PHONE": "804-437-4845", "COUNTY": "Virginia Beach", "COMMENT": "", "HYPERLINK": "http:\/\/www.virginiagolf.com\/redwing.html" }, "geometry": { "type": "Point", "coordinates": [ -75.979428, 36.799836 ] } }
,
{ "type": "Feature", "id": 125, "properties": { "NAME": "Bide-A-Wee Golf Course", "TYPE": "Semi-Private", "MAIL_ADD": "1 Bide -A-Wee Drive", "CITY": "Portsmouth", "ZIP": "23701", "PHONE": "757-393-8600", "COUNTY": "Portsmouth", "COMMENT": "", "HYPERLINK": "http:\/\/www.virginiagolf.com\/bideawee.html" }, "geometry": { "type": "Point", "coordinates": [ -76.339458, 36.802236 ] } }
,
{ "type": "Feature", "id": 126, "properties": { "NAME": "Honey Bee Golf Course", "TYPE": "Public", "MAIL_ADD": "5016 Independence Boulevard", "CITY": "Virginia Beach", "ZIP": "23456", "PHONE": "757-471-2768", "COUNTY": "Virginia Beach", "COMMENT": "", "HYPERLINK": "http:\/\/www.virginiagolf.com\/honeybee.html" }, "geometry": { "type": "Point", "coordinates": [ -76.130522, 36.777735 ] } }
,
{ "type": "Feature", "id": 127, "properties": { "NAME": "Greenbrier Country Club", "TYPE": "Private", "MAIL_ADD": "1301 Volvo Parkway", "CITY": "Chesapeake", "ZIP": "23320", "PHONE": "804-547-7375", "COUNTY": "Chesapeake", "COMMENT": "", "HYPERLINK": "http:\/\/www.virginiagolf.com\/greenbriar.html" }, "geometry": { "type": "Point", "coordinates": [ -76.216452, 36.767004 ] } }
,
{ "type": "Feature", "id": 128, "properties": { "NAME": "Greenway Creek Golf Course", "TYPE": "Public", "MAIL_ADD": "P.O. Box 1069", "CITY": "Glade Spring", "ZIP": "24340", "PHONE": "276-429-2626", "COUNTY": "Washington", "COMMENT": "", "HYPERLINK": "http:\/\/thegolfcourses.net\/golfcourses\/VA\/15257.htm" }, "geometry": { "type": "Point", "coordinates": [ -81.739789, 36.778706 ] } }
,
{ "type": "Feature", "id": 129, "properties": { "NAME": "Stumpy Lake Golf Course", "TYPE": "Public", "MAIL_ADD": "4797 East Indian River Road", "CITY": "Virginia Beach", "ZIP": "23456", "PHONE": "757-467-6119", "COUNTY": "Virginia Beach", "COMMENT": "", "HYPERLINK": "http:\/\/www.virginiagolf.com\/stumpylake.html" }, "geometry": { "type": "Point", "coordinates": [ -76.161272, 36.768197 ] } }
,
{ "type": "Feature", "id": 130, "properties": { "NAME": "TPC of Virginia Beach", "TYPE": "Private", "MAIL_ADD": "2500 Tournament Drive", "CITY": "Virginia Beach", "ZIP": "23456", "PHONE": "757-563-9440", "COUNTY": "Virginia Beach", "COMMENT": "", "HYPERLINK": "http:\/\/www.virginiagolf.com\/tpc.html" }, "geometry": { "type": "Point", "coordinates": [ -76.074953, 36.757184 ] } }
,
{ "type": "Feature", "id": 131, "properties": { "NAME": "Hell's Point Golf Course", "TYPE": "Public", "MAIL_ADD": "2700 Atwoodtown Road", "CITY": "Virginia Beach", "ZIP": "23456", "PHONE": "757-721-3401", "COUNTY": "Virginia Beach", "COMMENT": "", "HYPERLINK": "http:\/\/www.virginiagolf.com\/hellspoint.html" }, "geometry": { "type": "Point", "coordinates": [ -75.976915, 36.741210 ] } }
,
{ "type": "Feature", "id": 132, "properties": { "NAME": "Heron Ridge Golf Course", "TYPE": "Public", "MAIL_ADD": "2973 Heron Ridge Drive", "CITY": "Virginia Beach", "ZIP": "23456", "PHONE": "757-426-3800", "COUNTY": "Virginia Beach", "COMMENT": "", "HYPERLINK": "http:\/\/www.virginiagolf.com\/heronridge.html" }, "geometry": { "type": "Point", "coordinates": [ -76.034496, 36.733016 ] } }
,
{ "type": "Feature", "id": 133, "properties": { "NAME": "Suffolk Golf Course", "TYPE": "Public", "MAIL_ADD": "1227 Holland Road", "CITY": "Suffolk", "ZIP": "23434", "PHONE": "757-539-6298", "COUNTY": "Suffolk", "COMMENT": "", "HYPERLINK": "http:\/\/www.virginiagolf.com\/suffolk.html" }, "geometry": { "type": "Point", "coordinates": [ -76.613198, 36.726805 ] } }
,
{ "type": "Feature", "id": 134, "properties": { "NAME": "Cahoon Plantation", "TYPE": "Public", "MAIL_ADD": "1501 Cedar Road", "CITY": "Chesapeake", "ZIP": "23322", "PHONE": "757-436-2775", "COUNTY": "Chesapeake", "COMMENT": "", "HYPERLINK": "http:\/\/www.virginiagolf.com\/cahoonplantation.html" }, "geometry": { "type": "Point", "coordinates": [ -76.297775, 36.717101 ] } }
,
{ "type": "Feature", "id": 135, "properties": { "NAME": "Chesapeake Golf Club", "TYPE": "Public", "MAIL_ADD": "1201 Club House Drive", "CITY": "Chesapeake", "ZIP": "23322", "PHONE": "757-436-2512", "COUNTY": "Chesapeake", "COMMENT": "Also called Seven Springs", "HYPERLINK": "http:\/\/www.virginiagolf.com\/sevensprings.html" }, "geometry": { "type": "Point", "coordinates": [ -76.285319, 36.708281 ] } }
,
{ "type": "Feature", "id": 136, "properties": { "NAME": "Cedar Hill Country Club", "TYPE": "Public", "MAIL_ADD": "Route 1, Box 598", "CITY": "Jonesville", "ZIP": "24263", "PHONE": "276-346-1535", "COUNTY": "Lee", "COMMENT": "", "HYPERLINK": "http:\/\/www.virginiagolf.com\/cedarhill.html" }, "geometry": { "type": "Point", "coordinates": [ -83.185580, 36.654736 ] } }
,
{ "type": "Feature", "id": 137, "properties": { "NAME": "Beaver Hills Golf Course", "TYPE": "Public", "MAIL_ADD": "325 Beaver Hill Club Drive", "CITY": "Martinsville", "ZIP": "24112", "PHONE": "540-632-1526", "COUNTY": "Henry", "COMMENT": "", "HYPERLINK": "http:\/\/www.virginiagolf.com\/beaverhill.html" }, "geometry": { "type": "Point", "coordinates": [ -79.887984, 36.736858 ] } }
,
{ "type": "Feature", "id": 138, "properties": { "NAME": "Blue Ridge Country Club", "TYPE": "Semi-Private", "MAIL_ADD": "P.O. Box 329", "CITY": "Galax", "ZIP": "24333", "PHONE": "276-236-5637", "COUNTY": "Carroll", "COMMENT": "", "HYPERLINK": "http:\/\/www.virginiagolf.com\/blueridge.html" }, "geometry": { "type": "Point", "coordinates": [ -80.858843, 36.711060 ] } }
,
{ "type": "Feature", "id": 139, "properties": { "NAME": "Monte Vista Golf Course", "TYPE": "Semi-Private", "MAIL_ADD": "102 Brooks Lane", "CITY": "Gibson Station", "ZIP": "24248", "PHONE": "540-861-4014", "COUNTY": "Lee", "COMMENT": "", "HYPERLINK": "http:\/\/www.virginiagolf.com\/montavista.html" }, "geometry": { "type": "Point", "coordinates": [ -83.554971, 36.623994 ] } }
,
{ "type": "Feature", "id": 140, "properties": { "NAME": "Scott County Park and Golf Course", "TYPE": "Public", "MAIL_ADD": "Route 2", "CITY": "Gate City", "ZIP": "24251", "PHONE": "276-452-4168", "COUNTY": "Scott", "COMMENT": "", "HYPERLINK": "http:\/\/www.virginiagolf.com\/scottcounty.html" }, "geometry": { "type": "Point", "coordinates": [ -82.562889, 36.655280 ] } }
,
{ "type": "Feature", "id": 141, "properties": { "NAME": "Lynwood Golf and Country Club", "TYPE": "Private", "MAIL_ADD": "P.O. Box 4826", "CITY": "Martinsville", "ZIP": "24115", "PHONE": "540-632-2295", "COUNTY": "Henry", "COMMENT": "", "HYPERLINK": "http:\/\/www.virginiagolf.com\/lynwood.html" }, "geometry": { "type": "Point", "coordinates": [ -79.900574, 36.669307 ] } }
,
{ "type": "Feature", "id": 142, "properties": { "NAME": "Chatmoss Country Club", "TYPE": "Private", "MAIL_ADD": "P.O. Box 5063", "CITY": "Martinsville", "ZIP": "24115", "PHONE": "540-638-7648", "COUNTY": "Henry", "COMMENT": "", "HYPERLINK": "http:\/\/www.virginiagolf.com\/chatmoss.html" }, "geometry": { "type": "Point", "coordinates": [ -79.807953, 36.665658 ] } }
,
{ "type": "Feature", "id": 143, "properties": { "NAME": "Kinderton Country Club", "TYPE": "Semi-Private", "MAIL_ADD": "P.O. Box 758", "CITY": "Clarkeville", "ZIP": "23927", "PHONE": "804-374-8822", "COUNTY": "Mecklenburg", "COMMENT": "", "HYPERLINK": "http:\/\/www.virginiagolf.com\/kinderton.html" }, "geometry": { "type": "Point", "coordinates": [ -78.547892, 36.609627 ] } }
,
{ "type": "Feature", "id": 144, "properties": { "NAME": "River Ridge Golf Course", "TYPE": "Public", "MAIL_ADD": "P.O. Box 40", "CITY": "Bracey", "ZIP": "23919", "PHONE": "804-636-2989", "COUNTY": "Mecklenburg", "COMMENT": "", "HYPERLINK": "http:\/\/www.virginiagolf.com\/riverridge.html" }, "geometry": { "type": "Point", "coordinates": [ -78.140873, 36.581484 ] } }
,
{ "type": "Feature", "id": 145, "properties": { "NAME": "Tanglewood Shores Golf and Country Club", "TYPE": "Private", "MAIL_ADD": "74 Tanglewood Drive", "CITY": "Bracey", "ZIP": "23919", "PHONE": "804-636-2254", "COUNTY": "Mecklenburg", "COMMENT": "", "HYPERLINK": "http:\/\/www.virginiagolf.com\/tanglewood.html" }, "geometry": { "type": "Point", "coordinates": [ -78.052645, 36.576686 ] } }
,
{ "type": "Feature", "id": 146, "properties": { "NAME": "Lake Gaston Golf Course", "TYPE": "Public", "MAIL_ADD": "P.O. Box 487", "CITY": "Gasburg", "ZIP": "23857", "PHONE": "434-577-2888", "COUNTY": "Brunswick", "COMMENT": "", "HYPERLINK": "http:\/\/www.virginia.org\/site\/description.asp?AttrID=11858&MGrp=1&MCat=86&MItm=22&Rgn=10000&StrtLtr=L" }, "geometry": { "type": "Point", "coordinates": [ -77.887251, 36.557257 ] } }
,
{ "type": "Feature", "id": 147, "properties": { "NAME": "Goodyear Golf Club", "TYPE": "Private", "MAIL_ADD": "1901 Goodyear Boulevard", "CITY": "Danville", "ZIP": "24541", "PHONE": "804-797-1909", "COUNTY": "Danville City", "COMMENT": "", "HYPERLINK": "http:\/\/www.virginiagolf.com\/goodyear.html" }, "geometry": { "type": "Point", "coordinates": [ -79.380507, 36.550928 ] } }
,
{ "type": "Feature", "id": 148, "properties": { "NAME": "Forest Greens Golf Course", "TYPE": "Semi-Private", "MAIL_ADD": "7915 South Woods", "CITY": "Triangle", "ZIP": "22172", "PHONE": "703-221-0123", "COUNTY": "Prince William", "COMMENT": "", "HYPERLINK": "http:\/\/www.virginiagolf.com\/forestgreens.html" }, "geometry": { "type": "Point", "coordinates": [ -77.352401, 38.544322 ] } }
,
{ "type": "Feature", "id": 149, "properties": { "NAME": "Lake of the Woods Country Club", "TYPE": "Private", "MAIL_ADD": "HC75 Box 3", "CITY": "Locust Grove", "ZIP": "22508", "PHONE": "540-972-2230", "COUNTY": "Orange", "COMMENT": "", "HYPERLINK": "http:\/\/www.virginiagolf.com\/lakeofthewoods.html" }, "geometry": { "type": "Point", "coordinates": [ -77.749023, 38.334047 ] } }
,
{ "type": "Feature", "id": 150, "properties": { "NAME": "Indian Creek Yacht and Country Club", "TYPE": "Private", "MAIL_ADD": "1934 Club Drive", "CITY": "Kilmarnock", "ZIP": "22482", "PHONE": "804-435-3130", "COUNTY": "Lancaster", "COMMENT": "", "HYPERLINK": "http:\/\/www.virginiagolf.com\/indiancreek.html" }, "geometry": { "type": "Point", "coordinates": [ -76.338875, 37.699067 ] } }
,
{ "type": "Feature", "id": 151, "properties": { "NAME": "The Tartan Golf Club", "TYPE": "Public", "MAIL_ADD": "633 Saint Andrews Lane", "CITY": "Irvington", "ZIP": "22480", "PHONE": "804-438-6005", "COUNTY": "Lancaster", "COMMENT": "", "HYPERLINK": "http:\/\/www.virginia.org\/site\/description.asp?AttrID=23929&MGrp=1&MCat=86&MItm=22&Rgn=10000&StrtLtr=T" }, "geometry": { "type": "Point", "coordinates": [ -76.433510, 37.673760 ] } }
,
{ "type": "Feature", "id": 152, "properties": { "NAME": "Tides Inn Par 3", "TYPE": "Resort", "MAIL_ADD": "480 King Carter Drive", "CITY": "Irvington", "ZIP": "22480", "PHONE": "804-438-5000", "COUNTY": "Lancaster", "COMMENT": "", "HYPERLINK": "http:\/\/www.virginia.org\/site\/description.asp?AttrID=29138&MGrp=1&MCat=86&MItm=22&Rgn=10000&StrtLtr=T" }, "geometry": { "type": "Point", "coordinates": [ -76.428817, 37.661928 ] } }
,
{ "type": "Feature", "id": 153, "properties": { "NAME": "Countryside Golf Course", "TYPE": "Public", "MAIL_ADD": "1 Countryside Road", "CITY": "Roanoke", "ZIP": "24017", "PHONE": "540-563-0391", "COUNTY": "Roanoke", "COMMENT": "", "HYPERLINK": "http:\/\/www.virginiagolf.com\/countryside.html" }, "geometry": { "type": "Point", "coordinates": [ -79.988494, 37.316937 ] } }
,
{ "type": "Feature", "id": 154, "properties": { "NAME": "Holly Oaks Golf Course", "TYPE": "Military", "MAIL_ADD": "P.O. Box 32 Naval Weapons Station", "CITY": "Yorktown", "ZIP": "23692", "PHONE": "757-887-4323", "COUNTY": "York", "COMMENT": "", "HYPERLINK": "http:\/\/www.virginiagolf.com\/hollyoaks.html" }, "geometry": { "type": "Point", "coordinates": [ -76.552720, 37.260880 ] } }
,
{ "type": "Feature", "id": 155, "properties": { "NAME": "Roanoke Country Club", "TYPE": "Private", "MAIL_ADD": "3360 Country Club Drive, NW", "CITY": "Roanoke", "ZIP": "24017", "PHONE": "540-343-1330", "COUNTY": "Roanoke", "COMMENT": "", "HYPERLINK": "http:\/\/www.virginiagolf.com\/roanokecc.html" }, "geometry": { "type": "Point", "coordinates": [ -79.990716, 37.297652 ] } }
,
{ "type": "Feature", "id": 156, "properties": { "NAME": "Two Rivers Country Club", "TYPE": "Private", "MAIL_ADD": "1400 Two Rivers Road", "CITY": "Williamsburg", "ZIP": "23185", "PHONE": "757-258-4613", "COUNTY": "James City", "COMMENT": "", "HYPERLINK": "http:\/\/www.virginiagolf.com\/tworivers.html" }, "geometry": { "type": "Point", "coordinates": [ -76.853534, 37.246508 ] } }
,
{ "type": "Feature", "id": 157, "properties": { "NAME": "Hidden Valley Country Club", "TYPE": "Private", "MAIL_ADD": "2500 Romar Drive", "CITY": "Salem", "ZIP": "24153", "PHONE": "540-389-8990", "COUNTY": "Salem City", "COMMENT": "", "HYPERLINK": "http:\/\/www.virginiagolf.com\/hiddenvalley.html" }, "geometry": { "type": "Point", "coordinates": [ -80.049413, 37.258631 ] } }
,
{ "type": "Feature", "id": 158, "properties": { "NAME": "Cardinal Golf Club", "TYPE": "Military", "MAIL_ADD": "P.O. Box 5010", "CITY": "Fort Lee", "ZIP": "23805", "PHONE": "804-734-2899", "COUNTY": "Prince George", "COMMENT": "", "HYPERLINK": "http:\/\/www.leemwr.com\/golf\/golf.htm" }, "geometry": { "type": "Point", "coordinates": [ -77.324329, 37.223232 ] } }
,
{ "type": "Feature", "id": 159, "properties": { "NAME": "Country Club of Petersburg", "TYPE": "Private", "MAIL_ADD": "P.O. Box 1599", "CITY": "Petersburg", "ZIP": "23805", "PHONE": "804-733-4458", "COUNTY": "Prince George", "COMMENT": "", "HYPERLINK": "http:\/\/www.virginiagolf.com\/ccpetersburg.html" }, "geometry": { "type": "Point", "coordinates": [ -77.393182, 37.166439 ] } }
,
{ "type": "Feature", "id": 160, "properties": { "NAME": "Pines Golf Course", "TYPE": "Military", "MAIL_ADD": "3501 Mulberry Island Road", "CITY": "Fort Eustis", "ZIP": "23604", "PHONE": "757-878-2965", "COUNTY": "Newport News", "COMMENT": "", "HYPERLINK": "http:\/\/www.virginiagolf.com\/pines.html" }, "geometry": { "type": "Point", "coordinates": [ -76.596593, 37.139544 ] } }
,
{ "type": "Feature", "id": 161, "properties": { "NAME": "Eagle Haven Golf Course", "TYPE": "Military", "MAIL_ADD": "Naval Amphibious Base Little Creek", "CITY": "Norfolk", "ZIP": "23521", "PHONE": "757-464-8526", "COUNTY": "Virginia Beach", "COMMENT": "", "HYPERLINK": "http:\/\/www.virginiagolf.com\/eaglehaven.html" }, "geometry": { "type": "Point", "coordinates": [ -76.151754, 36.921092 ] } }
,
{ "type": "Feature", "id": 162, "properties": { "NAME": "Broad Bay Country Club", "TYPE": "Private", "MAIL_ADD": "2120 Lords Landing", "CITY": "Virginia Beach", "ZIP": "23454", "PHONE": "757-496-9090", "COUNTY": "Virginia Beach", "COMMENT": "", "HYPERLINK": "http:\/\/www.virginiagolf.com\/broadbay.html" }, "geometry": { "type": "Point", "coordinates": [ -76.047507, 36.892793 ] } }
,
{ "type": "Feature", "id": 163, "properties": { "NAME": "Cedar Point Golf and Country Club", "TYPE": "Private", "MAIL_ADD": "P.O. Box 6138", "CITY": "Suffolk", "ZIP": "", "PHONE": "757-238-3554", "COUNTY": "Suffolk", "COMMENT": "", "HYPERLINK": "http:\/\/www.virginiagolf.com\/cedarpoint.html" }, "geometry": { "type": "Point", "coordinates": [ -76.489372, 36.902136 ] } }
,
{ "type": "Feature", "id": 164, "properties": { "NAME": "Elizabeth Manor Golf and Country Club", "TYPE": "Private", "MAIL_ADD": "Once Ace Parker Drive", "CITY": "Portsmouth", "ZIP": "23701", "PHONE": "804-488-6605", "COUNTY": "Portsmouth", "COMMENT": "", "HYPERLINK": "http:\/\/www.virginiagolf.com\/elizabethmanor.html" }, "geometry": { "type": "Point", "coordinates": [ -76.393988, 36.815476 ] } }
,
{ "type": "Feature", "id": 165, "properties": { "NAME": "Hermitage Country Club", "TYPE": "Private", "MAIL_ADD": "P.O. Box 222", "CITY": "Manakin-Sabot", "ZIP": "23103", "PHONE": "804-784-3811", "COUNTY": "Goochland", "COMMENT": "", "HYPERLINK": "http:\/\/www.virginiagolf.com\/hermitage.html" }, "geometry": { "type": "Point", "coordinates": [ -77.705925, 37.648606 ] } }
,
{ "type": "Feature", "id": 166, "properties": { "NAME": "Millwood Country Club", "TYPE": "Private", "MAIL_ADD": "P.O. Box 127", "CITY": "Boyce", "ZIP": "22620", "PHONE": "540-837-1803", "COUNTY": "Clarke", "COMMENT": "", "HYPERLINK": "http:\/\/www.virginiagolf.com\/millwood.html" }, "geometry": { "type": "Point", "coordinates": [ -78.052341, 39.077970 ] } }
,
{ "type": "Feature", "id": 167, "properties": { "NAME": "Fawn Lake Country Club", "TYPE": "Private", "MAIL_ADD": "11300 Longstreet Drive", "CITY": "Spotsylvania", "ZIP": "22533", "PHONE": "540-972-3084", "COUNTY": "Spotsylvania", "COMMENT": "", "HYPERLINK": "http:\/\/www.virginiagolf.com\/fawnlake.html" }, "geometry": { "type": "Point", "coordinates": [ -77.713888, 38.274308 ] } }
,
{ "type": "Feature", "id": 168, "properties": { "NAME": "Hanover Country Club", "TYPE": "Private", "MAIL_ADD": "14314 Country Club Drive", "CITY": "Ashland", "ZIP": "23005", "PHONE": "804-752-6596", "COUNTY": "Hanover", "COMMENT": "", "HYPERLINK": "http:\/\/www.virginiagolf.com\/hanovercc.html" }, "geometry": { "type": "Point", "coordinates": [ -77.541281, 37.801524 ] } }
,
{ "type": "Feature", "id": 169, "properties": { "NAME": "Boonsboro Country Club", "TYPE": "Private", "MAIL_ADD": "Route 4 Box 147A", "CITY": "Lynchburg", "ZIP": "24503", "PHONE": "434-384-3411", "COUNTY": "Bedford", "COMMENT": "", "HYPERLINK": "http:\/\/www.virginiagolf.com\/boonsboro.html" }, "geometry": { "type": "Point", "coordinates": [ -79.254175, 37.456895 ] } }
,
{ "type": "Feature", "id": 170, "properties": { "NAME": "Oakwood Country Club", "TYPE": "Private", "MAIL_ADD": "3409 Rivermont Avenue", "CITY": "Lynchburg", "ZIP": "24503", "PHONE": "434-384-8777", "COUNTY": "Lynchburg", "COMMENT": "", "HYPERLINK": "http:\/\/www.virginiagolf.com\/oakwood.html" }, "geometry": { "type": "Point", "coordinates": [ -79.192743, 37.435945 ] } }
,
{ "type": "Feature", "id": 171, "properties": { "NAME": "Crewe Country Club", "TYPE": "Private", "MAIL_ADD": "317 Country Club Road", "CITY": "Crewe", "ZIP": "23930", "PHONE": "434-645-7240", "COUNTY": "Nottoway", "COMMENT": "", "HYPERLINK": "http:\/\/www.virginiagolf.com\/crewecc.html" }, "geometry": { "type": "Point", "coordinates": [ -78.110955, 37.167506 ] } }
,
{ "type": "Feature", "id": 172, "properties": { "NAME": "Mecklenburg Country Club", "TYPE": "Private", "MAIL_ADD": "45 Country Club Drive", "CITY": "Chase City", "ZIP": "23924", "PHONE": "804-372-4075", "COUNTY": "Mecklenburg", "COMMENT": "", "HYPERLINK": "http:\/\/www.virginiagolf.com\/mecklenburg.html" }, "geometry": { "type": "Point", "coordinates": [ -78.432520, 36.803349 ] } }
,
{ "type": "Feature", "id": 173, "properties": { "NAME": "Emporia Country Club", "TYPE": "Private", "MAIL_ADD": "578 Country Club Road", "CITY": "Emporia", "ZIP": "23847", "PHONE": "804-634-4304", "COUNTY": "Greensville", "COMMENT": "", "HYPERLINK": "http:\/\/www.virginiagolf.com\/emporiacc.html" }, "geometry": { "type": "Point", "coordinates": [ -77.497154, 36.752289 ] } }
,
{ "type": "Feature", "id": 174, "properties": { "NAME": "Halifax Country Club", "TYPE": "Private", "MAIL_ADD": "5136 Halifax Road", "CITY": "Halifax", "ZIP": "24558", "PHONE": "434-476-2940", "COUNTY": "Halifax", "COMMENT": "", "HYPERLINK": "http:\/\/www.virginiagolf.com\/halifax.html" }, "geometry": { "type": "Point", "coordinates": [ -78.925067, 36.751726 ] } }
,
{ "type": "Feature", "id": 175, "properties": { "NAME": "South Hill Country Club", "TYPE": "Private", "MAIL_ADD": "P.O. Box 596", "CITY": "South Hill", "ZIP": "23970", "PHONE": "804-757-7558", "COUNTY": "Mecklenburg", "COMMENT": "", "HYPERLINK": "http:\/\/www.virginiagolf.com\/southhill.html" }, "geometry": { "type": "Point", "coordinates": [ -78.068169, 36.744017 ] } }
,
{ "type": "Feature", "id": 176, "properties": { "NAME": "Cypress Cove Country Club", "TYPE": "Private", "MAIL_ADD": "3033 Country Club Road", "CITY": "Franklin", "ZIP": "23851", "PHONE": "757-562-2219", "COUNTY": "Southampton", "COMMENT": "", "HYPERLINK": "http:\/\/www.virginiagolf.com\/cypresscove.html" }, "geometry": { "type": "Point", "coordinates": [ -76.989168, 36.702895 ] } }
,
{ "type": "Feature", "id": 177, "properties": { "NAME": "Tuscarora Country Club", "TYPE": "Private", "MAIL_ADD": "701 Golf Club Road", "CITY": "Danville", "ZIP": "24540", "PHONE": "804-724-4191", "COUNTY": "Pittsylvania", "COMMENT": "", "HYPERLINK": "http:\/\/www.virginiagolf.com\/tuscarora.html" }, "geometry": { "type": "Point", "coordinates": [ -79.431708, 36.671772 ] } }
,
{ "type": "Feature", "id": 178, "properties": { "NAME": "Danville Golf Club", "TYPE": "Private", "MAIL_ADD": "2725 West Main Street", "CITY": "Danville", "ZIP": "24541", "PHONE": "804-792-8956", "COUNTY": "Danville City", "COMMENT": "", "HYPERLINK": "http:\/\/www.virginiagolf.com\/danville.html" }, "geometry": { "type": "Point", "coordinates": [ -79.454482, 36.555860 ] } }
,
{ "type": "Feature", "id": 179, "properties": { "NAME": "Virginia Tech Golf Course", "TYPE": "Public", "MAIL_ADD": "1 Duckpond Drive", "CITY": "Blacksburg", "ZIP": "24061", "PHONE": "540-231-6435", "COUNTY": "Montgomery", "COMMENT": "", "HYPERLINK": "http:\/\/www.virginiagolf.com\/vatech.html" }, "geometry": { "type": "Point", "coordinates": [ -80.432854, 37.228032 ] } }
,
{ "type": "Feature", "id": 180, "properties": { "NAME": "Bassett Country Club", "TYPE": "Private", "MAIL_ADD": "P.O. Box 873", "CITY": "Bassett", "ZIP": "24055", "PHONE": "540-629-3242", "COUNTY": "Henry", "COMMENT": "", "HYPERLINK": "http:\/\/www.virginiagolf.com\/bassett.html" }, "geometry": { "type": "Point", "coordinates": [ -79.941581, 36.741363 ] } }
,
{ "type": "Feature", "id": 181, "properties": { "NAME": "Virginian Golf Club", "TYPE": "Private", "MAIL_ADD": "1375 Jonesboro Road", "CITY": "Bristol", "ZIP": "24202", "PHONE": "276-645-6959", "COUNTY": "Washington", "COMMENT": "", "HYPERLINK": "http:\/\/www.virginiagolf.com\/virginian.html" }, "geometry": { "type": "Point", "coordinates": [ -82.090059, 36.622922 ] } }
,
{ "type": "Feature", "id": 182, "properties": { "NAME": "Dan Hall Mountain Resort", "TYPE": "Semi-Private", "MAIL_ADD": "Dan Hall Mt. Road", "CITY": "Coeburn", "ZIP": "24230", "PHONE": "276-395-2487", "COUNTY": "Wise", "COMMENT": "", "HYPERLINK": "http:\/\/www.virginiagolf.com\/danhall.html" }, "geometry": { "type": "Point", "coordinates": [ -82.447259, 36.957848 ] } }
,
{ "type": "Feature", "id": 183, "properties": { "NAME": "Glenrochie Country Club", "TYPE": "Private", "MAIL_ADD": "Country Club Drive", "CITY": "Abingdon", "ZIP": "24210", "PHONE": "276-628-3572", "COUNTY": "Washington", "COMMENT": "", "HYPERLINK": "http:\/\/www.virginiagolf.com\/glenrochie.html" }, "geometry": { "type": "Point", "coordinates": [ -81.957343, 36.696856 ] } }
,
{ "type": "Feature", "id": 184, "properties": { "NAME": "Lonesome Pine Country Club", "TYPE": "Private", "MAIL_ADD": "Route 610", "CITY": "Big Stone Gap", "ZIP": "24219", "PHONE": "276-523-0739", "COUNTY": "Wise", "COMMENT": "", "HYPERLINK": "http:\/\/www.virginiagolf.com\/lonesomepine.html" }, "geometry": { "type": "Point", "coordinates": [ -82.679886, 36.886432 ] } }
,
{ "type": "Feature", "id": 185, "properties": { "NAME": "Lake Bonaventure Country Club", "TYPE": "Private", "MAIL_ADD": "Gravel Lick Road", "CITY": "Castlewood", "ZIP": "24224", "PHONE": "276-762-7618", "COUNTY": "Russell", "COMMENT": "", "HYPERLINK": "http:\/\/www.virginiagolf.com\/lakebonaventure.html" }, "geometry": { "type": "Point", "coordinates": [ -82.271541, 36.901355 ] } }
,
{ "type": "Feature", "id": 186, "properties": { "NAME": "Tazewell County Country Club", "TYPE": "Private", "MAIL_ADD": "Route 637", "CITY": "Cliffield", "ZIP": "24637", "PHONE": "276-988-3593", "COUNTY": "Tazewell", "COMMENT": "", "HYPERLINK": "http:\/\/www.virginiagolf.com\/tazewell.html" }, "geometry": { "type": "Point", "coordinates": [ -81.630422, 37.105258 ] } }
,
{ "type": "Feature", "id": 187, "properties": { "NAME": "Fincastle Country Club", "TYPE": "Private", "MAIL_ADD": "Club Drive", "CITY": "Bluefield", "ZIP": "24605", "PHONE": "276-322-4342", "COUNTY": "Tazewell", "COMMENT": "", "HYPERLINK": "http:\/\/www.virginiagolf.com\/fincastle.html" }, "geometry": { "type": "Point", "coordinates": [ -81.276256, 37.228813 ] } }
,
{ "type": "Feature", "id": 188, "properties": { "NAME": "Holston Hills Country Club", "TYPE": "Semi-Private", "MAIL_ADD": "1000 Country Club Rd", "CITY": "Marion", "ZIP": "25354", "PHONE": "276-783-7484", "COUNTY": "Smyth", "COMMENT": "", "HYPERLINK": "http:\/\/www.virginiagolf.com\/holstonhills.html" }, "geometry": { "type": "Point", "coordinates": [ -81.540634, 36.827232 ] } }
,
{ "type": "Feature", "id": 189, "properties": { "NAME": "Scenic View Golf Course", "TYPE": "Semi-Private", "MAIL_ADD": "969 Loves Mill Rd", "CITY": "Chilhowie", "ZIP": "24319", "PHONE": "276-646-3535", "COUNTY": "Smyth", "COMMENT": "", "HYPERLINK": "http:\/\/www.virginiagolf.com\/scenicview.html" }, "geometry": { "type": "Point", "coordinates": [ -81.678587, 36.750567 ] } }
,
{ "type": "Feature", "id": 190, "properties": { "NAME": "Wolf Creek Golf and Country Club", "TYPE": "Semi-Private", "MAIL_ADD": "Route 614", "CITY": "Bastian", "ZIP": "24314", "PHONE": "276-688-4610", "COUNTY": "Bland", "COMMENT": "", "HYPERLINK": "http:\/\/www.virginiagolf.com\/wolfcreek.html" }, "geometry": { "type": "Point", "coordinates": [ -81.223268, 37.165113 ] } }
,
{ "type": "Feature", "id": 191, "properties": { "NAME": "Wytheville Golf Course", "TYPE": "Private", "MAIL_ADD": "1325 Lee Hwy", "CITY": "Wytheville", "ZIP": "24382", "PHONE": "540-228-2143", "COUNTY": "Wythe", "COMMENT": "", "HYPERLINK": "http:\/\/www.virginiagolf.com\/wytheville.html" }, "geometry": { "type": "Point", "coordinates": [ -81.107906, 36.938013 ] } }
,
{ "type": "Feature", "id": 192, "properties": { "NAME": "Galax Country Club", "TYPE": "Private", "MAIL_ADD": "107 Country Club Ln", "CITY": "Galax", "ZIP": "24333", "PHONE": "276-236-2641", "COUNTY": "Grayson", "COMMENT": "", "HYPERLINK": "http:\/\/www.virginiagolf.com\/galax.html" }, "geometry": { "type": "Point", "coordinates": [ -80.902237, 36.681152 ] } }
,
{ "type": "Feature", "id": 193, "properties": { "NAME": "Skylands Lake Golf Course and Resort", "TYPE": "Public", "MAIL_ADD": "Mile Post 202 Blue Ridge Pkwy", "CITY": "Fancy Gap", "ZIP": "24328", "PHONE": "276-728-4923", "COUNTY": "Carroll", "COMMENT": "", "HYPERLINK": "http:\/\/www.virginiagolf.com\/skylandlakes.html" }, "geometry": { "type": "Point", "coordinates": [ -80.731299, 36.645429 ] } }
,
{ "type": "Feature", "id": 194, "properties": { "NAME": "Olde Mill Resort", "TYPE": "Public", "MAIL_ADD": "2258 Stone Mountain Rd.", "CITY": "Laurel Fork", "ZIP": "24352", "PHONE": "276-398-2638", "COUNTY": "Carroll", "COMMENT": "", "HYPERLINK": "http:\/\/www.virginiagolf.com\/oldemill.html" }, "geometry": { "type": "Point", "coordinates": [ -80.517384, 36.690818 ] } }
,
{ "type": "Feature", "id": 195, "properties": { "NAME": "Draper Valley Golf Club", "TYPE": "Public", "MAIL_ADD": "2800 Big Valley Drive", "CITY": "Draper", "ZIP": "24324", "PHONE": "540-980-4653", "COUNTY": "Pulaski", "COMMENT": "", "HYPERLINK": "http:\/\/www.virginiagolf.com\/drapervalley.html" }, "geometry": { "type": "Point", "coordinates": [ -80.815851, 36.995593 ] } }
,
{ "type": "Feature", "id": 196, "properties": { "NAME": "Thorn Spring Golf Club", "TYPE": "Private", "MAIL_ADD": "Route 11", "CITY": "Pulaski", "ZIP": "24301", "PHONE": "540-980-5851", "COUNTY": "Pulaski", "COMMENT": "", "HYPERLINK": "http:\/\/www.virginiagolf.com\/thornspring.html" }, "geometry": { "type": "Point", "coordinates": [ -80.740574, 37.083648 ] } }
,
{ "type": "Feature", "id": 197, "properties": { "NAME": "Castle Rock Golf and Recreation", "TYPE": "Public", "MAIL_ADD": "Castle Rock Road", "CITY": "Pembroke", "ZIP": "24136", "PHONE": "540-626-7276", "COUNTY": "Giles", "COMMENT": "", "HYPERLINK": "http:\/\/www.virginiagolf.com\/castlerock.html" }, "geometry": { "type": "Point", "coordinates": [ -80.639216, 37.305924 ] } }
,
{ "type": "Feature", "id": 198, "properties": { "NAME": "Auburn Hills Golf Club", "TYPE": "Semi-Private", "MAIL_ADD": "1581 Turnberry Lane", "CITY": "Riner", "ZIP": "24149", "PHONE": "540-381-4995", "COUNTY": "Montgomery", "COMMENT": "", "HYPERLINK": "http:\/\/www.virginiagolf.com\/auburnhills.html" }, "geometry": { "type": "Point", "coordinates": [ -80.441820, 37.078396 ] } }
,
{ "type": "Feature", "id": 199, "properties": { "NAME": "Blacksburg Municipal Golf Course", "TYPE": "Public", "MAIL_ADD": "800 Graves Avenue", "CITY": "Blacksburg", "ZIP": "24060", "PHONE": "540-961-1137", "COUNTY": "Montgomery", "COMMENT": "", "HYPERLINK": "http:\/\/www.virginiagolf.com\/blacksburgmunicipal.html" }, "geometry": { "type": "Point", "coordinates": [ -80.397580, 37.224242 ] } }
,
{ "type": "Feature", "id": 200, "properties": { "NAME": "Blacksburg Country Club", "TYPE": "Private", "MAIL_ADD": "1064 Clubhouse Road", "CITY": "Blacksburg", "ZIP": "24060", "PHONE": "540-552-9164", "COUNTY": "Montgomery", "COMMENT": "", "HYPERLINK": "http:\/\/www.virginiagolf.com\/blacksburg.html" }, "geometry": { "type": "Point", "coordinates": [ -80.358584, 37.217145 ] } }
,
{ "type": "Feature", "id": 201, "properties": { "NAME": "Gordon Trent Golf Course", "TYPE": "Public", "MAIL_ADD": "2160 Golf Course Road", "CITY": "Stuart", "ZIP": "24171", "PHONE": "540-694-3805", "COUNTY": "Patrick", "COMMENT": "", "HYPERLINK": "http:\/\/www.virginiagolf.com\/gordontrent.html" }, "geometry": { "type": "Point", "coordinates": [ -80.099859, 36.588004 ] } }
,
{ "type": "Feature", "id": 202, "properties": { "NAME": "Salem Golf Course", "TYPE": "Public", "MAIL_ADD": "601 Academy St", "CITY": "Salem", "ZIP": "24153", "PHONE": "540-387-9802", "COUNTY": "Salem City", "COMMENT": "", "HYPERLINK": "http:\/\/www.virginiagolf.com\/salem.html" }, "geometry": { "type": "Point", "coordinates": [ -80.066485, 37.297750 ] } }
,
{ "type": "Feature", "id": 203, "properties": { "NAME": "Hanging Rock Golf Club", "TYPE": "Public", "MAIL_ADD": "1500 Red Lane", "CITY": "Salem", "ZIP": "24153", "PHONE": "540-389-7275", "COUNTY": "Roanoke", "COMMENT": "", "HYPERLINK": "http:\/\/www.virginiagolf.com\/hangingrock.html" }, "geometry": { "type": "Point", "coordinates": [ -80.071807, 37.315114 ] } }
,
{ "type": "Feature", "id": 204, "properties": { "NAME": "Hollyfields Golf Club", "TYPE": "Semi-Private", "MAIL_ADD": "10416 Mill Creek Ln", "CITY": "Bent Mountain", "ZIP": "24059", "PHONE": "540-929-4583", "COUNTY": "Roanoke", "COMMENT": "", "HYPERLINK": "http:\/\/www.virginiagolf.com\/hollyfields.html" }, "geometry": { "type": "Point", "coordinates": [ -80.122797, 37.147712 ] } }
,
{ "type": "Feature", "id": 205, "properties": { "NAME": "Hunting Hills Country Club", "TYPE": "Private", "MAIL_ADD": "5220 Hunting Hills Drive", "CITY": "Roanoke", "ZIP": "24014", "PHONE": "540-774-4429", "COUNTY": "Roanoke", "COMMENT": "", "HYPERLINK": "http:\/\/www.virginiagolf.com\/huntinghills.html" }, "geometry": { "type": "Point", "coordinates": [ -79.973060, 37.215747 ] } }
,
{ "type": "Feature", "id": 206, "properties": { "NAME": "Old Monterey Golf Club", "TYPE": "Semi-Private", "MAIL_ADD": "1112 Tinker Creek Lane NE", "CITY": "Roanoke", "ZIP": "24019", "PHONE": "540-563-0400", "COUNTY": "Roanoke", "COMMENT": "", "HYPERLINK": "http:\/\/www.virginiagolf.com\/oldmonterey.html" }, "geometry": { "type": "Point", "coordinates": [ -79.918721, 37.310066 ] } }
,
{ "type": "Feature", "id": 207, "properties": { "NAME": "Blue Hills Golf Course", "TYPE": "Semi-Private", "MAIL_ADD": "2002 Blue Hills Circle", "CITY": "Roanoke", "ZIP": "24012", "PHONE": "540-344-7848", "COUNTY": "Roanoke", "COMMENT": "", "HYPERLINK": "http:\/\/www.virginiagolf.com\/bluehills.html" }, "geometry": { "type": "Point", "coordinates": [ -79.908663, 37.309616 ] } }
,
{ "type": "Feature", "id": 208, "properties": { "NAME": "Brookside Par 3 Golf", "TYPE": "Public", "MAIL_ADD": "6303 Williamson Rd NW", "CITY": "Roanoke", "ZIP": "24019", "PHONE": "540-366-6059", "COUNTY": "Roanoke", "COMMENT": "", "HYPERLINK": "http:\/\/www.virginiagolf.com\/brookside.html" }, "geometry": { "type": "Point", "coordinates": [ -79.952141, 37.332463 ] } }
,
{ "type": "Feature", "id": 209, "properties": { "NAME": "Botetourt Country Club", "TYPE": "Semi-Private", "MAIL_ADD": "4444 Country Club Rd", "CITY": "Fincastle", "ZIP": "24090", "PHONE": "540-992-1451", "COUNTY": "Botetourt", "COMMENT": "", "HYPERLINK": "http:\/\/www.virginiagolf.com\/botetourt.html" }, "geometry": { "type": "Point", "coordinates": [ -79.925403, 37.477122 ] } }
,
{ "type": "Feature", "id": 210, "properties": { "NAME": "Westlake Golf and Country Club", "TYPE": "Semi-Private", "MAIL_ADD": "360 Chestnut Creek Drive", "CITY": "Hardy", "ZIP": "24101", "PHONE": "540-721-4214", "COUNTY": "Franklin", "COMMENT": "", "HYPERLINK": "http:\/\/www.virginiagolf.com\/westlake.html" }, "geometry": { "type": "Point", "coordinates": [ -79.720580, 37.134277 ] } }
,
{ "type": "Feature", "id": 211, "properties": { "NAME": "Bedford Country Club", "TYPE": "Private", "MAIL_ADD": "3563 Peaks Road", "CITY": "Bedford", "ZIP": "24523", "PHONE": "540-586-8407", "COUNTY": "Bedford", "COMMENT": "", "HYPERLINK": "http:\/\/www.virginiagolf.com\/bedford.html" }, "geometry": { "type": "Point", "coordinates": [ -79.542785, 37.375643 ] } }
,
{ "type": "Feature", "id": 212, "properties": { "NAME": "Mariners Landing Golf and Country Club", "TYPE": "Semi-Private", "MAIL_ADD": "Route 1", "CITY": "Huddleston", "ZIP": "24101", "PHONE": "540-297-7888", "COUNTY": "Bedford", "COMMENT": "", "HYPERLINK": "http:\/\/www.virginiagolf.com\/marinerslanding.html" }, "geometry": { "type": "Point", "coordinates": [ -79.572024, 37.095485 ] } }
,
{ "type": "Feature", "id": 213, "properties": { "NAME": "Waterfront Country Club", "TYPE": "Private", "MAIL_ADD": "275 Anchor Drive", "CITY": "Moneta", "ZIP": "24121", "PHONE": "540-721-2653", "COUNTY": "Franklin", "COMMENT": "", "HYPERLINK": "http:\/\/www.virginiagolf.com\/waterfrontcc.html" }, "geometry": { "type": "Point", "coordinates": [ -79.663834, 37.100845 ] } }
,
{ "type": "Feature", "id": 214, "properties": { "NAME": "Waters Edge Country Club", "TYPE": "Private", "MAIL_ADD": "1825 Waters Edge Drive", "CITY": "Penhook", "ZIP": "24137", "PHONE": "540-576-3343", "COUNTY": "Franklin", "COMMENT": "", "HYPERLINK": "http:\/\/www.virginiagolf.com\/watersedge.html" }, "geometry": { "type": "Point", "coordinates": [ -79.619543, 37.021802 ] } }
,
{ "type": "Feature", "id": 215, "properties": { "NAME": "Willow Creek Country Club", "TYPE": "Public", "MAIL_ADD": "Route 220", "CITY": "Rocky Mount", "ZIP": "24151", "PHONE": "540-483-0797", "COUNTY": "Franklin", "COMMENT": "", "HYPERLINK": "http:\/\/www.virginiagolf.com\/willowcreek.html" }, "geometry": { "type": "Point", "coordinates": [ -79.873247, 36.946433 ] } }
,
{ "type": "Feature", "id": 216, "properties": { "NAME": "Poplar Forest Golf Course", "TYPE": "Public", "MAIL_ADD": "Ramblewood Road", "CITY": "Forest", "ZIP": "24551", "PHONE": "434-525-0473", "COUNTY": "Bedford", "COMMENT": "", "HYPERLINK": "http:\/\/www.virginiagolf.com\/poplarforest.html" }, "geometry": { "type": "Point", "coordinates": [ -79.269425, 37.350637 ] } }
,
{ "type": "Feature", "id": 217, "properties": { "NAME": "Lexington Golf and Country Club", "TYPE": "Private", "MAIL_ADD": "141 Country Club Road", "CITY": "Lexington", "ZIP": "24450", "PHONE": "540-463-3542", "COUNTY": "Lexington City", "COMMENT": "", "HYPERLINK": "http:\/\/www.virginiagolf.com\/lexington.html" }, "geometry": { "type": "Point", "coordinates": [ -79.462472, 37.772127 ] } }
,
{ "type": "Feature", "id": 218, "properties": { "NAME": "Cedars Country Club", "TYPE": "Semi-Private", "MAIL_ADD": "1029 Anderson Mill Road", "CITY": "Chatham", "ZIP": "24531", "PHONE": "804-656-8036", "COUNTY": "Pittsylvania", "COMMENT": "", "HYPERLINK": "http:\/\/www.virginiagolf.com\/cedars.html" }, "geometry": { "type": "Point", "coordinates": [ -79.421864, 36.891074 ] } }
,
{ "type": "Feature", "id": 219, "properties": { "NAME": "Ringgold Golf Club", "TYPE": "Public", "MAIL_ADD": "1493 Ringgold Road", "CITY": "Ringgold", "ZIP": "24586", "PHONE": "434-822-8728", "COUNTY": "Pittsylvania", "COMMENT": "", "HYPERLINK": "http:\/\/www.virginiagolf.com\/ringgold.html" }, "geometry": { "type": "Point", "coordinates": [ -79.298618, 36.591004 ] } }
,
{ "type": "Feature", "id": 220, "properties": { "NAME": "Glen Oak Country Club", "TYPE": "Private", "MAIL_ADD": "Stokesland Avenue", "CITY": "Danville", "ZIP": "24541", "PHONE": "434-792-9178", "COUNTY": "Danville City", "COMMENT": "", "HYPERLINK": "http:\/\/www.virginiagolf.com\/glenoak.html" }, "geometry": { "type": "Point", "coordinates": [ -79.437564, 36.558254 ] } }
,
{ "type": "Feature", "id": 221, "properties": { "NAME": "Forest Park Country Club", "TYPE": "Private", "MAIL_ADD": "1821 Mulberry Road", "CITY": "Martinsville", "ZIP": "24112", "PHONE": "540-632-1711", "COUNTY": "Martinsville City", "COMMENT": "", "HYPERLINK": "http:\/\/www.virginiagolf.com\/forestpark.html" }, "geometry": { "type": "Point", "coordinates": [ -79.836402, 36.651371 ] } }
,
{ "type": "Feature", "id": 222, "properties": { "NAME": "Alleghany Country Club", "TYPE": "Semi-Private", "MAIL_ADD": "111A E Country Club Lane", "CITY": "Covington", "ZIP": "24426", "PHONE": "540-862-5789", "COUNTY": "Alleghany", "COMMENT": "", "HYPERLINK": "http:\/\/www.virginiagolf.com\/alleghany.html" }, "geometry": { "type": "Point", "coordinates": [ -79.910050, 37.787675 ] } }
,
{ "type": "Feature", "id": 223, "properties": { "NAME": "Cliftondale Country Club", "TYPE": "Semi-Private", "MAIL_ADD": "Cliftondale Country Club Road", "CITY": "Clifton Forge", "ZIP": "24422", "PHONE": "540-862-2081", "COUNTY": "Alleghany", "COMMENT": "", "HYPERLINK": "http:\/\/www.virginiagolf.com\/cliftondale.html" }, "geometry": { "type": "Point", "coordinates": [ -79.792169, 37.823140 ] } }
,
{ "type": "Feature", "id": 224, "properties": { "NAME": "Cliff View Golf Club", "TYPE": "Public", "MAIL_ADD": "410 Friels Drive", "CITY": "Covington", "ZIP": "24426", "PHONE": "540-962-2200", "COUNTY": "Alleghany", "COMMENT": "Estimated Boundary", "HYPERLINK": "http:\/\/thegolfcourses.net\/golfcourses\/VA\/18415.htm" }, "geometry": { "type": "Point", "coordinates": [ -79.972573, 37.869072 ] } }
,
{ "type": "Feature", "id": 225, "properties": { "NAME": "Altavista Country Club", "TYPE": "Private", "MAIL_ADD": "Country Club Road", "CITY": "Hurt", "ZIP": "24563", "PHONE": "804-324-7276", "COUNTY": "Pittsylvania", "COMMENT": "", "HYPERLINK": "http:\/\/www.virginiagolf.com\/altavista.html" }, "geometry": { "type": "Point", "coordinates": [ -79.311972, 37.077453 ] } }
,
{ "type": "Feature", "id": 226, "properties": { "NAME": "Hat Creek Golf Course", "TYPE": "Public", "MAIL_ADD": "Rural Route 1", "CITY": "Brookneal", "ZIP": "24528", "PHONE": "804-376-2292", "COUNTY": "Campbell", "COMMENT": "", "HYPERLINK": "http:\/\/www.virginiagolf.com\/hatcreek.html" }, "geometry": { "type": "Point", "coordinates": [ -78.933382, 37.103753 ] } }
,
{ "type": "Feature", "id": 227, "properties": { "NAME": "Green's Folly Golf Course", "TYPE": "Public", "MAIL_ADD": "1085 Greens Foley Road", "CITY": "South Boston", "ZIP": "24592", "PHONE": "434-572-4998", "COUNTY": "Halifax", "COMMENT": "", "HYPERLINK": "http:\/\/www.virginiagolf.com\/greensfolly.html" }, "geometry": { "type": "Point", "coordinates": [ -78.927304, 36.736897 ] } }
,
{ "type": "Feature", "id": 228, "properties": { "NAME": "Briery Country Club", "TYPE": "Private", "MAIL_ADD": "Highway 651", "CITY": "Keysville", "ZIP": "23947", "PHONE": "804-736-8569", "COUNTY": "Charlotte", "COMMENT": "", "HYPERLINK": "http:\/\/www.virginiagolf.com\/briery.html" }, "geometry": { "type": "Point", "coordinates": [ -78.483645, 37.073304 ] } }
,
{ "type": "Feature", "id": 229, "properties": { "NAME": "Falling River Country Club", "TYPE": "Private", "MAIL_ADD": "Rural Route 4", "CITY": "Appomatox", "ZIP": "24522", "PHONE": "434-352-7037", "COUNTY": "Appomatox", "COMMENT": "", "HYPERLINK": "http:\/\/www.virginiagolf.com\/fallingriver.html" }, "geometry": { "type": "Point", "coordinates": [ -78.874737, 37.335648 ] } }
,
{ "type": "Feature", "id": 230, "properties": { "NAME": "Longwood Golf Course", "TYPE": "Public", "MAIL_ADD": "Johnston Street", "CITY": "Farmville", "ZIP": "23901", "PHONE": "434-395-2613", "COUNTY": "Prince Edward", "COMMENT": "", "HYPERLINK": "http:\/\/www.virginiagolf.com\/longwood.html" }, "geometry": { "type": "Point", "coordinates": [ -78.381464, 37.289836 ] } }
,
{ "type": "Feature", "id": 231, "properties": { "NAME": "Heartland Golf Club", "TYPE": "Semi-Private", "MAIL_ADD": "36 Wedgwood Drive", "CITY": "Farmville", "ZIP": "23901", "PHONE": "434-392-6656", "COUNTY": "Cumberland", "COMMENT": "Also listed as Landing View Golf Course", "HYPERLINK": "http:\/\/www.virginiagolf.com\/heartland.html" }, "geometry": { "type": "Point", "coordinates": [ -78.435734, 37.351500 ] } }
,
{ "type": "Feature", "id": 232, "properties": { "NAME": "Gypsy Hill Golf Club", "TYPE": "Public", "MAIL_ADD": "Gypsy Hill Park", "CITY": "Staunton", "ZIP": "24401", "PHONE": "540-332-3949", "COUNTY": "Augusta", "COMMENT": "", "HYPERLINK": "http:\/\/www.virginiagolf.com\/gypsyhill.html" }, "geometry": { "type": "Point", "coordinates": [ -79.087438, 38.159154 ] } }
,
{ "type": "Feature", "id": 233, "properties": { "NAME": "Ingleside Resort and Country Club", "TYPE": "Public", "MAIL_ADD": "1410 Commerce Road", "CITY": "Staunton", "ZIP": "24401", "PHONE": "540-248-1201", "COUNTY": "Augusta", "COMMENT": "", "HYPERLINK": "http:\/\/www.virginiagolf.com\/ingleside.html" }, "geometry": { "type": "Point", "coordinates": [ -79.033790, 38.187281 ] } }
,
{ "type": "Feature", "id": 234, "properties": { "NAME": "Country Club of Staunton", "TYPE": "Semi-Private", "MAIL_ADD": "Country Club Road", "CITY": "Staunton", "ZIP": "24401", "PHONE": "540-248-7273", "COUNTY": "Staunton City", "COMMENT": "", "HYPERLINK": "http:\/\/www.virginiagolf.com\/ccstaunton.html" }, "geometry": { "type": "Point", "coordinates": [ -79.009637, 38.173286 ] } }
,
{ "type": "Feature", "id": 235, "properties": { "NAME": "Waynesboro Country Club", "TYPE": "Private", "MAIL_ADD": "1117 Meadowbrook Road", "CITY": "Waynesboro", "ZIP": "22980", "PHONE": "540-942-9340", "COUNTY": "Waynesboro", "COMMENT": "", "HYPERLINK": "http:\/\/www.virginiagolf.com\/waynesboro.html" }, "geometry": { "type": "Point", "coordinates": [ -78.916460, 38.061269 ] } }
,
{ "type": "Feature", "id": 236, "properties": { "NAME": "Swannanoa Country Club", "TYPE": "Public", "MAIL_ADD": "Rural Route 1", "CITY": "Afton", "ZIP": "22920", "PHONE": "540-943-8864", "COUNTY": "Augusta", "COMMENT": "", "HYPERLINK": "http:\/\/www.virginiagolf.com\/swannanoa.html" }, "geometry": { "type": "Point", "coordinates": [ -78.880923, 38.020739 ] } }
,
{ "type": "Feature", "id": 237, "properties": { "NAME": "Wintergreen Resort - Devil's Knob", "TYPE": "Resort", "MAIL_ADD": "Route 664", "CITY": "Nellysford", "ZIP": "22958", "PHONE": "434-325-2200", "COUNTY": "Nelson", "COMMENT": "", "HYPERLINK": "http:\/\/www.virginiagolf.com\/devilsknob.html" }, "geometry": { "type": "Point", "coordinates": [ -78.950652, 37.924105 ] } }
,
{ "type": "Feature", "id": 238, "properties": { "NAME": "Wintergreen Resort - Stony Creek Course", "TYPE": "Resort", "MAIL_ADD": "Route 664", "CITY": "Nellysford", "ZIP": "22958", "PHONE": "434-325-2200", "COUNTY": "Nelson", "COMMENT": "", "HYPERLINK": "http:\/\/www.virginiagolf.com\/stoneycreek.html" }, "geometry": { "type": "Point", "coordinates": [ -78.878201, 37.898939 ] } }
,
{ "type": "Feature", "id": 239, "properties": { "NAME": "Cascades Course at the Homestead", "TYPE": "Resort", "MAIL_ADD": "Route 687", "CITY": "Hot Springs", "ZIP": "24445", "PHONE": "540-839-3083", "COUNTY": "Bath", "COMMENT": "", "HYPERLINK": "http:\/\/www.virginiagolf.com\/cascades.html" }, "geometry": { "type": "Point", "coordinates": [ -79.909964, 37.976699 ] } }
,
{ "type": "Feature", "id": 240, "properties": { "NAME": "Old Course at The Homestead", "TYPE": "Resort", "MAIL_ADD": "Box 2000", "CITY": "Hot Springs", "ZIP": "24445", "PHONE": "540-839-3083", "COUNTY": "Bath", "COMMENT": "", "HYPERLINK": "http:\/\/www.virginiagolf.com\/homestead.html" }, "geometry": { "type": "Point", "coordinates": [ -79.823305, 38.003187 ] } }
,
{ "type": "Feature", "id": 241, "properties": { "NAME": "Cascades Golf Club", "TYPE": "Public", "MAIL_ADD": "Route 2", "CITY": "Hot Springs", "ZIP": "24445", "PHONE": "540-839-3083", "COUNTY": "Bath", "COMMENT": "", "HYPERLINK": "http:\/\/www.virginiagolf.com\/lowercascades.html" }, "geometry": { "type": "Point", "coordinates": [ -79.870225, 37.952051 ] } }
,
{ "type": "Feature", "id": 242, "properties": { "NAME": "Farmington Country Club", "TYPE": "Private", "MAIL_ADD": "1 Country Club Circle", "CITY": "Charlottesville", "ZIP": "22901", "PHONE": "434-293-3153", "COUNTY": "Albemarle", "COMMENT": "", "HYPERLINK": "http:\/\/www.virginiagolf.com\/farmington.html" }, "geometry": { "type": "Point", "coordinates": [ -78.539962, 38.060305 ] } }
,
{ "type": "Feature", "id": 243, "properties": { "NAME": "Birdwood Golf Course", "TYPE": "Public", "MAIL_ADD": "410 Golf Course Drive", "CITY": "Charlottesville", "ZIP": "22901", "PHONE": "434-293-4653", "COUNTY": "Charlottesville City", "COMMENT": "", "HYPERLINK": "http:\/\/www.virginiagolf.com\/birdwood.html" }, "geometry": { "type": "Point", "coordinates": [ -78.537110, 38.042367 ] } }
,
{ "type": "Feature", "id": 244, "properties": { "NAME": "McIntire Park Golf Course", "TYPE": "Public", "MAIL_ADD": "McIntire Park Route 250", "CITY": "Charlottesville", "ZIP": "22902", "PHONE": "434-977-4111", "COUNTY": "Charlottesville City", "COMMENT": "primitive", "HYPERLINK": "http:\/\/www.virginiagolf.com\/mcintirepark.html" }, "geometry": { "type": "Point", "coordinates": [ -78.474333, 38.045751 ] } }
,
{ "type": "Feature", "id": 245, "properties": { "NAME": "Glenmore Country Club", "TYPE": "Private", "MAIL_ADD": "1750 Piper Way", "CITY": "Keswick", "ZIP": "22947", "PHONE": "434-817-0502", "COUNTY": "Albemarle", "COMMENT": "", "HYPERLINK": "http:\/\/www.virginiagolf.com\/glenmore.html" }, "geometry": { "type": "Point", "coordinates": [ -78.382479, 37.994397 ] } }
,
{ "type": "Feature", "id": 246, "properties": { "NAME": "University of Virginia Golf Course", "TYPE": "Private", "MAIL_ADD": "Route 250 West", "CITY": "Charlottesville", "ZIP": "22905", "PHONE": "434-293-4653", "COUNTY": "Albemarle", "COMMENT": "", "HYPERLINK": "" }, "geometry": { "type": "Point", "coordinates": [ -78.590294, 38.049816 ] } }
,
{ "type": "Feature", "id": 247, "properties": { "NAME": "Morven Estate Golf Course", "TYPE": "Private", "MAIL_ADD": "James Monroe Parkway Route 795", "CITY": "Charlottesville", "ZIP": "22902", "PHONE": "434-295-5087.", "COUNTY": "Albemarle", "COMMENT": "", "HYPERLINK": "http:\/\/www.virginiagolf.com\/morvenestate.html" }, "geometry": { "type": "Point", "coordinates": [ -78.505639, 37.941601 ] } }
,
{ "type": "Feature", "id": 248, "properties": { "NAME": "Lake Monticello Golf Course", "TYPE": "Private", "MAIL_ADD": "51 Bunker Boulevard", "CITY": "Palmyra", "ZIP": "22963", "PHONE": "434-589-8263", "COUNTY": "Fluvanna", "COMMENT": "", "HYPERLINK": "http:\/\/www.virginiagolf.com\/lakemonticello.html" }, "geometry": { "type": "Point", "coordinates": [ -78.321993, 37.904114 ] } }
,
{ "type": "Feature", "id": 249, "properties": { "NAME": "Laurel Ridge Golf Club", "TYPE": "Public", "MAIL_ADD": "Route 15", "CITY": "Palmyra", "ZIP": "22963", "PHONE": "434-589-3730", "COUNTY": "Fluvanna", "COMMENT": "", "HYPERLINK": "http:\/\/www.virginiagolf.com\/laurelridge.html" }, "geometry": { "type": "Point", "coordinates": [ -78.267731, 37.877770 ] } }
,
{ "type": "Feature", "id": 250, "properties": { "NAME": "Victoria Country Club", "TYPE": "Private", "MAIL_ADD": "Poorhouse Road", "CITY": "Victoria", "ZIP": "23974", "PHONE": "434-696-3019", "COUNTY": "Lunenburg", "COMMENT": "", "HYPERLINK": "http:\/\/www.virginiagolf.com\/victoriacc.html" }, "geometry": { "type": "Point", "coordinates": [ -78.187013, 36.999603 ] } }
,
{ "type": "Feature", "id": 251, "properties": { "NAME": "Lunenburg Country Club", "TYPE": "Private", "MAIL_ADD": "Route 137", "CITY": "Kenbridge", "ZIP": "23944", "PHONE": "434-676-8774", "COUNTY": "Lunenburg", "COMMENT": "", "HYPERLINK": "http:\/\/www.virginiagolf.com\/lunenburg.html" }, "geometry": { "type": "Point", "coordinates": [ -78.103420, 36.951004 ] } }
,
{ "type": "Feature", "id": 252, "properties": { "NAME": "Nottoway River Country Club", "TYPE": "Private", "MAIL_ADD": "Route 1", "CITY": "Blackstone", "ZIP": "23824", "PHONE": "434-292-4485", "COUNTY": "Nottoway", "COMMENT": "", "HYPERLINK": "http:\/\/www.virginiagolf.com\/nottowayriver.html" }, "geometry": { "type": "Point", "coordinates": [ -78.037599, 37.047186 ] } }
,
{ "type": "Feature", "id": 253, "properties": { "NAME": "Brunswick Country Club", "TYPE": "Private", "MAIL_ADD": "Highway 46 North", "CITY": "Lawrenceville", "ZIP": "23141", "PHONE": "434-848-2933", "COUNTY": "Brunswick", "COMMENT": "", "HYPERLINK": "http:\/\/www.virginiagolf.com\/brunswick.html" }, "geometry": { "type": "Point", "coordinates": [ -77.891837, 36.797174 ] } }
,
{ "type": "Feature", "id": 254, "properties": { "NAME": "Needle's Eye Golf Club", "TYPE": "Private", "MAIL_ADD": "Highway 220", "CITY": "Monteray", "ZIP": "24465", "PHONE": "540-468-2427", "COUNTY": "Highland", "COMMENT": "", "HYPERLINK": "http:\/\/www.virginiagolf.com\/needleseye.html" }, "geometry": { "type": "Point", "coordinates": [ -79.600529, 38.379752 ] } }
,
{ "type": "Feature", "id": 255, "properties": { "NAME": "Spotswood Country Club", "TYPE": "Private", "MAIL_ADD": "1980 Country Club Road", "CITY": "Harrisonburg", "ZIP": "22802", "PHONE": "540-434-4886", "COUNTY": "Harrisonburg City", "COMMENT": "", "HYPERLINK": "http:\/\/www.virginiagolf.com\/spotswood.html" }, "geometry": { "type": "Point", "coordinates": [ -78.834318, 38.428720 ] } }
,
{ "type": "Feature", "id": 256, "properties": { "NAME": "Lakeview Golf Course", "TYPE": "Semi-Private", "MAIL_ADD": "4101 Shen Lake Drive", "CITY": "Harrisonburg", "ZIP": "22801", "PHONE": "540-434-8937", "COUNTY": "Harrisonburg City", "COMMENT": "", "HYPERLINK": "http:\/\/www.virginiagolf.com\/lakeview.html" }, "geometry": { "type": "Point", "coordinates": [ -78.826202, 38.390043 ] } }
,
{ "type": "Feature", "id": 257, "properties": { "NAME": "Massanutten Resort and Golf Course", "TYPE": "Resort", "MAIL_ADD": "Route 644", "CITY": "Harrisonburg", "ZIP": "22840", "PHONE": "540-289-4919", "COUNTY": "Rockingham", "COMMENT": "", "HYPERLINK": "http:\/\/www.virginiagolf.com\/massanutten.html" }, "geometry": { "type": "Point", "coordinates": [ -78.749426, 38.412788 ] } }
,
{ "type": "Feature", "id": 258, "properties": { "NAME": "Greene Hills Golf Club", "TYPE": "Semi-Private", "MAIL_ADD": "3858 Dundee Road", "CITY": "Stanardsville", "ZIP": "22973", "PHONE": "434-985-7328", "COUNTY": "Greene", "COMMENT": "", "HYPERLINK": "http:\/\/www.virginiagolf.com\/greenehills.html" }, "geometry": { "type": "Point", "coordinates": [ -78.402139, 38.325011 ] } }
,
{ "type": "Feature", "id": 259, "properties": { "NAME": "Caverns Country Club", "TYPE": "Semi-Private", "MAIL_ADD": "970 Highway 211 W", "CITY": "Luray", "ZIP": "22835", "PHONE": "540-743-7111", "COUNTY": "Page", "COMMENT": "", "HYPERLINK": "http:\/\/www.virginiagolf.com\/caverns.html" }, "geometry": { "type": "Point", "coordinates": [ -78.509926, 38.671349 ] } }
,
{ "type": "Feature", "id": 260, "properties": { "NAME": "Shenvalee", "TYPE": "Resort", "MAIL_ADD": "9660 Fairway Drive", "CITY": "New Market", "ZIP": "22844", "PHONE": "540-740-3181", "COUNTY": "Shenandoah", "COMMENT": "", "HYPERLINK": "http:\/\/www.virginiagolf.com\/shenvalee.html" }, "geometry": { "type": "Point", "coordinates": [ -78.668465, 38.636536 ] } }
,
{ "type": "Feature", "id": 261, "properties": { "NAME": "Bryce Resort", "TYPE": "Resort", "MAIL_ADD": "Route 263 West", "CITY": "Basye", "ZIP": "22810", "PHONE": "540-856-2124", "COUNTY": "Shenandoah", "COMMENT": "", "HYPERLINK": "http:\/\/www.virginiagolf.com\/bryceresort.html" }, "geometry": { "type": "Point", "coordinates": [ -78.767435, 38.817152 ] } }
,
{ "type": "Feature", "id": 262, "properties": { "NAME": "Tanyard Country Club", "TYPE": "Semi-Private", "MAIL_ADD": "404 East Main Street", "CITY": "Louisa", "ZIP": "23093", "PHONE": "540-967-1889", "COUNTY": "Louisa", "COMMENT": "", "HYPERLINK": "http:\/\/www.virginiagolf.com\/tanyardcc.html" }, "geometry": { "type": "Point", "coordinates": [ -77.997481, 38.011787 ] } }
,
{ "type": "Feature", "id": 263, "properties": { "NAME": "Shenandoah Crossing", "TYPE": "Resort", "MAIL_ADD": "10 Shenandoah Crossing Drive", "CITY": "Gordonsville", "ZIP": "22942", "PHONE": "540-832-9543", "COUNTY": "Louisa", "COMMENT": "", "HYPERLINK": "http:\/\/www.virginiagolf.com\/shenandoahcrossing.html" }, "geometry": { "type": "Point", "coordinates": [ -78.148305, 38.087055 ] } }
,
{ "type": "Feature", "id": 264, "properties": { "NAME": "Sycamore Creek Golf Course", "TYPE": "Public", "MAIL_ADD": "1991 Manakin Road", "CITY": "Manakin Sabot", "ZIP": "23103", "PHONE": "804-784-3544", "COUNTY": "Goochland", "COMMENT": "", "HYPERLINK": "http:\/\/www.virginiagolf.com\/sycamorecreek.html" }, "geometry": { "type": "Point", "coordinates": [ -77.688588, 37.676054 ] } }
,
{ "type": "Feature", "id": 265, "properties": { "NAME": "Hollows Golf Club", "TYPE": "Public", "MAIL_ADD": "14501 Greenwood Church Road", "CITY": "Montpelier", "ZIP": "23192", "PHONE": "804-798-2949", "COUNTY": "Hanover", "COMMENT": "", "HYPERLINK": "http:\/\/www.virginiagolf.com\/hollows.html" }, "geometry": { "type": "Point", "coordinates": [ -77.597146, 37.789324 ] } }
,
{ "type": "Feature", "id": 266, "properties": { "NAME": "Front Royal Country Club", "TYPE": "Public", "MAIL_ADD": "PO Box 1260", "CITY": "Front Royal", "ZIP": "22630", "PHONE": "540-636-9061", "COUNTY": "Warren", "COMMENT": "", "HYPERLINK": "http:\/\/www.virginiagolf.com\/frontroyal.html" }, "geometry": { "type": "Point", "coordinates": [ -78.184137, 38.960279 ] } }
,
{ "type": "Feature", "id": 267, "properties": { "NAME": "Shenandoah Valley Golf Club", "TYPE": "Semi-Private", "MAIL_ADD": "134 Golf Club Circle", "CITY": "Front Royal", "ZIP": "22630", "PHONE": "540-636-2641", "COUNTY": "Warren", "COMMENT": "", "HYPERLINK": "http:\/\/www.virginia.org\/site\/description.asp?AttrID=15228&MGrp=1&MCat=86&MItm=22&Rgn=10000&StrtLtr=S" }, "geometry": { "type": "Point", "coordinates": [ -78.129187, 38.992274 ] } }
,
{ "type": "Feature", "id": 268, "properties": { "NAME": "Bowling Green Country Club", "TYPE": "Public", "MAIL_ADD": "838 Bowling Green Road", "CITY": "Front Royal", "ZIP": "22630", "PHONE": "540-635-2024", "COUNTY": "Warren", "COMMENT": "", "HYPERLINK": "http:\/\/www.virginiagolf.com\/bowlinggreencc.html" }, "geometry": { "type": "Point", "coordinates": [ -78.122952, 38.986718 ] } }
,
{ "type": "Feature", "id": 269, "properties": { "NAME": "South Wales Golf Club", "TYPE": "Public", "MAIL_ADD": "18363 Golf Lanen", "CITY": "Jeffersonton", "ZIP": "22724", "PHONE": "540-937-3250", "COUNTY": "Culpeper", "COMMENT": "", "HYPERLINK": "http:\/\/www.virginiagolf.com\/southwales.html" }, "geometry": { "type": "Point", "coordinates": [ -77.912337, 38.666761 ] } }
,
{ "type": "Feature", "id": 270, "properties": { "NAME": "Country Club of Culpeper", "TYPE": "Private", "MAIL_ADD": "2100 Country Club Road", "CITY": "Culpeper", "ZIP": "22701", "PHONE": "540-825-1746", "COUNTY": "Culpeper", "COMMENT": "", "HYPERLINK": "http:\/\/www.virginiagolf.com\/ccofculpepper.html" }, "geometry": { "type": "Point", "coordinates": [ -78.017859, 38.463207 ] } }
,
{ "type": "Feature", "id": 271, "properties": { "NAME": "Browning's Golf Course", "TYPE": "Public", "MAIL_ADD": "27503 Old Office Road", "CITY": "Unionville", "ZIP": "22701", "PHONE": "540-854-4454", "COUNTY": "Orange", "COMMENT": "", "HYPERLINK": "http:\/\/www.virginiagolf.com\/browning.html" }, "geometry": { "type": "Point", "coordinates": [ -77.910447, 38.323292 ] } }
,
{ "type": "Feature", "id": 272, "properties": { "NAME": "Meadows Farms Golf Club", "TYPE": "Public", "MAIL_ADD": "4300 Flat Run Road", "CITY": "Locust Grove", "ZIP": "22508", "PHONE": "540-854-9890", "COUNTY": "Orange", "COMMENT": "", "HYPERLINK": "http:\/\/www.virginia.org\/site\/description.asp?AttrID=19812&MGrp=1&MCat=86&MItm=22&Rgn=10000&StrtLtr=M" }, "geometry": { "type": "Point", "coordinates": [ -77.777561, 38.347687 ] } }
,
{ "type": "Feature", "id": 273, "properties": { "NAME": "Somerset Golf Club", "TYPE": "Semi-Private", "MAIL_ADD": "35448 Somerset Ridge Road", "CITY": "Locust Grove", "ZIP": "22508", "PHONE": "540-423-1500", "COUNTY": "Orange", "COMMENT": "Estimated Boundary", "HYPERLINK": "http:\/\/www.virginiagolf.com\/somerset.html" }, "geometry": { "type": "Point", "coordinates": [ -77.756862, 38.381039 ] } }
,
{ "type": "Feature", "id": 274, "properties": { "NAME": "Aquia Harbour Golf and Country Club", "TYPE": "Semi-Private", "MAIL_ADD": "204 Bow Cove", "CITY": "Stafford", "ZIP": "22554", "PHONE": "540-659-4478", "COUNTY": "Stafford", "COMMENT": "", "HYPERLINK": "http:\/\/www.virginiagolf.com\/aquiaharbour.html" }, "geometry": { "type": "Point", "coordinates": [ -77.373335, 38.470696 ] } }
,
{ "type": "Feature", "id": 275, "properties": { "NAME": "Virginia National Golf Club", "TYPE": "Private", "MAIL_ADD": "1400 Parker Lane", "CITY": "Bluemont", "ZIP": "20135", "PHONE": "888-283-4653", "COUNTY": "Clarke", "COMMENT": "", "HYPERLINK": "http:\/\/www.virginiagolf.com\/virginianational.html" }, "geometry": { "type": "Point", "coordinates": [ -77.870421, 39.137883 ] } }
,
{ "type": "Feature", "id": 276, "properties": { "NAME": "Raspberry Falls Golf and Hunt Club", "TYPE": "Semi-Private", "MAIL_ADD": "41601 Raspbery Drive", "CITY": "Leesburg", "ZIP": "20176", "PHONE": "703-779-2555", "COUNTY": "Loudoun", "COMMENT": "Estimated Boundary", "HYPERLINK": "http:\/\/www.virginiagolf.com\/raspberryfalls.html" }, "geometry": { "type": "Point", "coordinates": [ -77.555364, 39.161876 ] } }
,
{ "type": "Feature", "id": 277, "properties": { "NAME": "Westpark Golf Club", "TYPE": "Semi-Private", "MAIL_ADD": "59 Clubhouse Diver SW", "CITY": "Leesburg", "ZIP": "20175", "PHONE": "703-777-7023", "COUNTY": "Loudoun", "COMMENT": "", "HYPERLINK": "http:\/\/www.virginiagolf.com\/westpark.html" }, "geometry": { "type": "Point", "coordinates": [ -77.588331, 39.101376 ] } }
,
{ "type": "Feature", "id": 278, "properties": { "NAME": "Belmont Country Club", "TYPE": "Private", "MAIL_ADD": "43880 Russell Branch Parkway", "CITY": "Ashburn", "ZIP": "20147", "PHONE": "703-858-9132", "COUNTY": "Loudoun", "COMMENT": "Estimated Boundary", "HYPERLINK": "http:\/\/www.virginiagolf.com\/belmont.html" }, "geometry": { "type": "Point", "coordinates": [ -77.494865, 39.064605 ] } }
,
{ "type": "Feature", "id": 279, "properties": { "NAME": "Lowes Island", "TYPE": "Private", "MAIL_ADD": "20391 Lowes Island Boulevard", "CITY": "Sterling", "ZIP": "20165", "PHONE": "703-444-4802", "COUNTY": "Loudoun", "COMMENT": "", "HYPERLINK": "http:\/\/www.virginiagolf.com\/lowesisland.html" }, "geometry": { "type": "Point", "coordinates": [ -77.346850, 39.058091 ] } }
,
{ "type": "Feature", "id": 280, "properties": { "NAME": "South Riding Golf Club", "TYPE": "Semi-Private", "MAIL_ADD": "43137 Golf View Drive", "CITY": "South Riding", "ZIP": "20152", "PHONE": "703-327-3673", "COUNTY": "Loudoun", "COMMENT": "Estimated Boundary", "HYPERLINK": "http:\/\/www.virginiagolf.com\/southriding.html" }, "geometry": { "type": "Point", "coordinates": [ -77.509154, 38.903000 ] } }
,
{ "type": "Feature", "id": 281, "properties": { "NAME": "Hidden Creek Country Club", "TYPE": "Private", "MAIL_ADD": "1171 Clubhouse Road", "CITY": "Reston", "ZIP": "20190", "PHONE": "703-437-5222", "COUNTY": "Fairfax", "COMMENT": "", "HYPERLINK": "http:\/\/www.virginiagolf.com\/hiddencreek.html" }, "geometry": { "type": "Point", "coordinates": [ -77.344541, 38.958795 ] } }
,
{ "type": "Feature", "id": 282, "properties": { "NAME": "Stonewall Golf Club", "TYPE": "Public", "MAIL_ADD": "15601 Turtle Point Drive", "CITY": "Gainesville", "ZIP": "20155", "PHONE": "703-753-5101", "COUNTY": "Prince William", "COMMENT": "", "HYPERLINK": "http:\/\/www.stonewallgolfclub.com\/" }, "geometry": { "type": "Point", "coordinates": [ -77.649276, 38.778842 ] } }
,
{ "type": "Feature", "id": 283, "properties": { "NAME": "Medal of Honor Golf Club", "TYPE": "Military", "MAIL_ADD": "Building 3303 Fuller Heights Road", "CITY": "Quantico", "ZIP": "22134", "PHONE": "703-784-2424", "COUNTY": "Prince William", "COMMENT": "", "HYPERLINK": "http:\/\/www.virginiagolf.com\/medalofhonor.html" }, "geometry": { "type": "Point", "coordinates": [ -77.309131, 38.530438 ] } }
,
{ "type": "Feature", "id": 284, "properties": { "NAME": "Willow Oaks Golf Club", "TYPE": "Military", "MAIL_ADD": "MWR Building 1278", "CITY": "Dahlgren", "ZIP": "22448", "PHONE": "540-663-3002", "COUNTY": "King George", "COMMENT": "Also known as Dahlgren Golf Club", "HYPERLINK": "http:\/\/www.nswc.navy.mil\/wwwDL\/CD\/MWR\/golf.html" }, "geometry": { "type": "Point", "coordinates": [ -77.039654, 38.325227 ] } }
,
{ "type": "Feature", "id": 285, "properties": { "NAME": "Cameron Hills Golf Links", "TYPE": "Public", "MAIL_ADD": "14140 Salem Church Road", "CITY": "King George", "ZIP": "22485", "PHONE": "540-775-4653", "COUNTY": "King George", "COMMENT": "", "HYPERLINK": "http:\/\/www.virginiagolf.com\/cameronhills.html" }, "geometry": { "type": "Point", "coordinates": [ -77.109580, 38.191293 ] } }
,
{ "type": "Feature", "id": 286, "properties": { "NAME": "Woodside Country Club", "TYPE": "Public", "MAIL_ADD": "Route 17 N", "CITY": "Tappahanock", "ZIP": "22560", "PHONE": "804-443-4060", "COUNTY": "Essex", "COMMENT": "", "HYPERLINK": "http:\/\/www.virginiagolf.com\/woodside.html" }, "geometry": { "type": "Point", "coordinates": [ -76.915026, 37.962906 ] } }
,
{ "type": "Feature", "id": 287, "properties": { "NAME": "Hobbs Hole Golf Course", "TYPE": "Semi-Private", "MAIL_ADD": "1267 Hobbs Hole Drive", "CITY": "Tappahanock", "ZIP": "22560", "PHONE": "804-443-4500", "COUNTY": "Essex", "COMMENT": "", "HYPERLINK": "http:\/\/www.virginiagolf.com\/hobbshole.html" }, "geometry": { "type": "Point", "coordinates": [ -76.857925, 37.898900 ] } }
,
{ "type": "Feature", "id": 288, "properties": { "NAME": "Piankatank River Golf Course", "TYPE": "Public", "MAIL_ADD": "PO Box 424, Route 708", "CITY": "Hartfield", "ZIP": "23071", "PHONE": "804-776-6516", "COUNTY": "Middlesex", "COMMENT": "Estimated Boundary", "HYPERLINK": "http:\/\/www.virginiagolf.com\/piankatank.html" }, "geometry": { "type": "Point", "coordinates": [ -76.479762, 37.553541 ] } }
,
{ "type": "Feature", "id": 289, "properties": { "NAME": "Gloucester Country Club", "TYPE": "Public", "MAIL_ADD": "6731 Golf Club Road", "CITY": "Gloucester", "ZIP": "23061", "PHONE": "804-693-2662", "COUNTY": "Gloucester", "COMMENT": "pasture golf", "HYPERLINK": "http:\/\/www.virginiagolf.com\/gloucester.html" }, "geometry": { "type": "Point", "coordinates": [ -76.532307, 37.399322 ] } }
,
{ "type": "Feature", "id": 290, "properties": { "NAME": "Windjammer Golf Course", "TYPE": "Public", "MAIL_ADD": "Highway 695", "CITY": "White Stone", "ZIP": "22578", "PHONE": "804-435-1166", "COUNTY": "Lancaster", "COMMENT": "Estimated Boundary", "HYPERLINK": "http:\/\/www.virginiagolf.com\/windjammer.html" }, "geometry": { "type": "Point", "coordinates": [ -76.288209, 37.615966 ] } }
,
{ "type": "Feature", "id": 291, "properties": { "NAME": "Northampton Golf Course", "TYPE": "Semi-Private", "MAIL_ADD": "PO Box 267", "CITY": "Cape Charles", "ZIP": "23310", "PHONE": "757-331-8423", "COUNTY": "Northampton", "COMMENT": "", "HYPERLINK": "http:\/\/www.virginiagolf.com\/northampton.html" }, "geometry": { "type": "Point", "coordinates": [ -76.008927, 37.272594 ] } }
,
{ "type": "Feature", "id": 292, "properties": { "NAME": "Captain's Cove Golf and Yacht Club", "TYPE": "Public", "MAIL_ADD": "Route 679", "CITY": "Greenbackville", "ZIP": "23356", "PHONE": "757-824-5478", "COUNTY": "Accomack", "COMMENT": "Estimated Boundary", "HYPERLINK": "http:\/\/www.virginiagolf.com\/captainscove.html" }, "geometry": { "type": "Point", "coordinates": [ -75.421596, 37.994949 ] } }
,
{ "type": "Feature", "id": 293, "properties": { "NAME": "Brookwoods Golf Club", "TYPE": "Public", "MAIL_ADD": "7325 Club Drive", "CITY": "Quinton", "ZIP": "23141", "PHONE": "804-932-3737", "COUNTY": "New Kent", "COMMENT": "", "HYPERLINK": "http:\/\/www.virginiagolf.com\/brookwoods.html" }, "geometry": { "type": "Point", "coordinates": [ -77.168330, 37.504970 ] } }
,
{ "type": "Feature", "id": 294, "properties": { "NAME": "Stonehouse Golf Club", "TYPE": "Semi-Private", "MAIL_ADD": "9540 Old Stage Road", "CITY": "Toano", "ZIP": "23168", "PHONE": "757-566-1138", "COUNTY": "James City", "COMMENT": "Estimated Boundary", "HYPERLINK": "http:\/\/www.virginia.org\/site\/description.asp?AttrID=15531&MGrp=1&MCat=86&MItm=22&Rgn=10000&StrtLtr=S" }, "geometry": { "type": "Point", "coordinates": [ -76.817869, 37.429845 ] } }
,
{ "type": "Feature", "id": 295, "properties": { "NAME": "Ford's Colony Golf Course", "TYPE": "Semi-Private", "MAIL_ADD": "240 Ford's Colony Drive", "CITY": "Williamsburg", "ZIP": "23188", "PHONE": "757-258-4130", "COUNTY": "James City", "COMMENT": "", "HYPERLINK": "http:\/\/www.virginiagolf.com\/fordscolonycc.html" }, "geometry": { "type": "Point", "coordinates": [ -76.784831, 37.301448 ] } }
,
{ "type": "Feature", "id": 296, "properties": { "NAME": "Ford's Colony Golf Course", "TYPE": "Semi-Private", "MAIL_ADD": "240 Ford's Colony Drive", "CITY": "Williamsburg", "ZIP": "23188", "PHONE": "757-258-4130", "COUNTY": "James City", "COMMENT": "", "HYPERLINK": "http:\/\/www.virginiagolf.com\/fordscolonycc.html" }, "geometry": { "type": "Point", "coordinates": [ -76.768502, 37.289715 ] } }
,
{ "type": "Feature", "id": 297, "properties": { "NAME": "Kingsmill Golf Club", "TYPE": "Resort", "MAIL_ADD": "1010 Kingsmill Road", "CITY": "Williamsburg", "ZIP": "23185", "PHONE": "757-253-3906", "COUNTY": "James City", "COMMENT": "", "HYPERLINK": "http:\/\/www.virginiagolf.com\/kingsmill.html" }, "geometry": { "type": "Point", "coordinates": [ -76.669628, 37.228440 ] } }
,
{ "type": "Feature", "id": 298, "properties": { "NAME": "Kingsmill Golf Course", "TYPE": "Resort", "MAIL_ADD": "1010 Kingsmill Road", "CITY": "Williamsburg", "ZIP": "23185", "PHONE": "757-253-3906", "COUNTY": "James City", "COMMENT": "", "HYPERLINK": "http:\/\/www.virginiagolf.com\/kingsmill.html" }, "geometry": { "type": "Point", "coordinates": [ -76.630206, 37.223335 ] } }
,
{ "type": "Feature", "id": 299, "properties": { "NAME": "Piedmont Club", "TYPE": "Private", "MAIL_ADD": "14655 Piedmont Vista Drive", "CITY": "Haymarket", "ZIP": "20169", "PHONE": "703-408-4971", "COUNTY": "Prince William", "COMMENT": "", "HYPERLINK": "http:\/\/www.piedmontclub.com\/" }, "geometry": { "type": "Point", "coordinates": [ -77.619953, 38.823663 ] } }
,
{ "type": "Feature", "id": 300, "properties": { "NAME": "Heritage Hunt Golf and Country Club", "TYPE": "Private", "MAIL_ADD": "6901 Arthur Hills Drive", "CITY": "Gainesville", "ZIP": "20155", "PHONE": "703-743-1100", "COUNTY": "Prince William", "COMMENT": "", "HYPERLINK": "http:\/\/www.heritagehuntgolf.com\/index.html" }, "geometry": { "type": "Point", "coordinates": [ -77.598169, 38.818334 ] } }
,
{ "type": "Feature", "id": 301, "properties": { "NAME": "Jordan Point Country Club", "TYPE": "Semi-Private", "MAIL_ADD": "Jordan Point Road", "CITY": "Hopewell", "ZIP": "23860", "PHONE": "804-458-0141", "COUNTY": "Hopewell City", "COMMENT": "", "HYPERLINK": "http:\/\/www.virginiagolf.com\/jordanpoint.html" }, "geometry": { "type": "Point", "coordinates": [ -77.227189, 37.296477 ] } }
,
{ "type": "Feature", "id": 302, "properties": { "NAME": "Stonehenge Country Club", "TYPE": "Private", "MAIL_ADD": "1000 Farnham Drive", "CITY": "Richmond", "ZIP": "23236", "PHONE": "804-378-7845", "COUNTY": "Chesterfield", "COMMENT": "", "HYPERLINK": "http:\/\/www.virginiagolf.com\/stonehendge.html" }, "geometry": { "type": "Point", "coordinates": [ -77.627601, 37.495987 ] } }
,
{ "type": "Feature", "id": 303, "properties": { "NAME": "Cypress Creek Golfers Club", "TYPE": "Semi-Private", "MAIL_ADD": "600 Cypress Creek Parkway", "CITY": "Smithfield", "ZIP": "23430", "PHONE": "757-365-4774", "COUNTY": "Isle of Wight", "COMMENT": "Estimated Boundary", "HYPERLINK": "http:\/\/www.virginia.org\/site\/description.asp?AttrID=18629&MGrp=1&MCat=86&MItm=22&Rgn=10000&Page=3&Dir=F" }, "geometry": { "type": "Point", "coordinates": [ -76.627378, 36.961617 ] } }
,
{ "type": "Feature", "id": 304, "properties": { "NAME": "Riverfront Golf Club", "TYPE": "Semi-Private", "MAIL_ADD": "1000 Hill Point Road", "CITY": "Suffolk", "ZIP": "23435", "PHONE": "757-484-2200", "COUNTY": "Suffolk", "COMMENT": "Also called Nansemond River", "HYPERLINK": "http:\/\/www.virginiagolf.com\/riverfront.html" }, "geometry": { "type": "Point", "coordinates": [ -76.447451, 36.881863 ] } }
,
{ "type": "Feature", "id": 305, "properties": { "NAME": "Nansemond River Golf Club", "TYPE": "Semi-Private", "MAIL_ADD": "1000 Hill Point Rd", "CITY": "Suffolk", "ZIP": "23434", "PHONE": "757-539-4356", "COUNTY": "Suffolk", "COMMENT": "", "HYPERLINK": "http:\/\/www.virginiagolf.com\/nansemondriver.html" }, "geometry": { "type": "Point", "coordinates": [ -76.566512, 36.780993 ] } }
,
{ "type": "Feature", "id": 306, "properties": { "NAME": "Norfolk Naval Base Golf Course", "TYPE": "Military", "MAIL_ADD": "Norfolk Naval Base", "CITY": "Norfolk", "ZIP": "23511", "PHONE": "", "COUNTY": "Norfolk", "COMMENT": "", "HYPERLINK": "" }, "geometry": { "type": "Point", "coordinates": [ -76.314230, 36.953002 ] } }
,
{ "type": "Feature", "id": 307, "properties": { "NAME": "Signature at Westneck", "TYPE": "Semi-Private", "MAIL_ADD": "3100 Arnold Palmer Drive", "CITY": "Virginia Beach", "ZIP": "23456", "PHONE": "757-721-2900", "COUNTY": "Virginia Beach", "COMMENT": "Need Info", "HYPERLINK": "http:\/\/www.signatureatwestneck.com\/" }, "geometry": { "type": "Point", "coordinates": [ -76.063673, 36.731946 ] } }
,
{ "type": "Feature", "id": 308, "properties": { "NAME": "Langley AFB\/Eaglewood Golf Club", "TYPE": "Military", "MAIL_ADD": "Box 65703", "CITY": "Langley Air Force Base", "ZIP": "23665", "PHONE": "757-764-4547", "COUNTY": "Hampton", "COMMENT": "", "HYPERLINK": "http:\/\/www.virginiagolf.com\/eaglewood.html" }, "geometry": { "type": "Point", "coordinates": [ -76.369304, 37.090266 ] } }
,
{ "type": "Feature", "id": 309, "properties": { "NAME": "Kiln Creek Golf and Country Club", "TYPE": "Semi-Private", "MAIL_ADD": "1003 Brick Kiln Boulevard", "CITY": "Newport News", "ZIP": "23602", "PHONE": "757-988-3220", "COUNTY": "Newport News", "COMMENT": "", "HYPERLINK": "http:\/\/www.virginiagolf.com\/kilncreek.html" }, "geometry": { "type": "Point", "coordinates": [ -76.477417, 37.121060 ] } }
,
{ "type": "Feature", "id": 310, "properties": { "NAME": "Baycreek Golf Club", "TYPE": "Public", "MAIL_ADD": "1 Clubhouse Way", "CITY": "Cape Charles", "ZIP": "23310", "PHONE": "757-331-9000", "COUNTY": "Northampton", "COMMENT": "Estimated Boundary", "HYPERLINK": "http:\/\/www.virginiagolf.com\/baycreek.html" }, "geometry": { "type": "Point", "coordinates": [ -76.007331, 37.250060 ] } }
,
{ "type": "Feature", "id": 311, "properties": { "NAME": "Broad Run Golf and Practice Facility", "TYPE": "Public", "MAIL_ADD": "10201 Golf Academy Drive", "CITY": "Bristow", "ZIP": "20136", "PHONE": "703-365-2443", "COUNTY": "Prince William", "COMMENT": "", "HYPERLINK": "http:\/\/www.broadrungolf.com\/" }, "geometry": { "type": "Point", "coordinates": [ -77.534012, 38.731747 ] } }
,
{ "type": "Feature", "id": 312, "properties": { "NAME": "First Tee of Chesterfield", "TYPE": "Public", "MAIL_ADD": "6736 Hunting Creek Road", "CITY": "Richmond", "ZIP": "23237", "PHONE": "804-275-8050", "COUNTY": "Chesterfield", "COMMENT": "", "HYPERLINK": "http:\/\/www.virginia.org\/site\/description.asp?AttrID=20131&MGrp=1&MCat=86&MItm=22&Rgn=10000&StrtLtr=F" }, "geometry": { "type": "Point", "coordinates": [ -77.494976, 37.400749 ] } }
,
{ "type": "Feature", "id": 313, "properties": { "NAME": "Independence Golf Club", "TYPE": "Public", "MAIL_ADD": "600 Founders Bridge Boulevard", "CITY": "Midlothian", "ZIP": "23113", "PHONE": "804-594-0261", "COUNTY": "Chesterfield", "COMMENT": "", "HYPERLINK": "http:\/\/www.independencegolfclub.com\/" }, "geometry": { "type": "Point", "coordinates": [ -77.686283, 37.543984 ] } }
,
{ "type": "Feature", "id": 314, "properties": { "NAME": "Kinloch Golf Club", "TYPE": "Private", "MAIL_ADD": "1100 Hockett Road", "CITY": "Manakin-Sabot", "ZIP": "23103", "PHONE": "804-784-6737", "COUNTY": "Goochland", "COMMENT": "", "HYPERLINK": "http:\/\/www.kinlochgolfclub.com\/" }, "geometry": { "type": "Point", "coordinates": [ -77.687346, 37.634708 ] } }
,
{ "type": "Feature", "id": 315, "properties": { "NAME": "Mattaponi Springs Golf Club at Penola Station", "TYPE": "Public", "MAIL_ADD": "22490 Penola Road", "CITY": "Ruther Glen", "ZIP": "22546", "PHONE": "804-633-7888", "COUNTY": "Caroline", "COMMENT": "", "HYPERLINK": "http:\/\/www.virginia.org\/site\/description.asp?AttrID=34992&MGrp=1&MCat=86&MItm=22&Rgn=10000&StrtLtr=M" }, "geometry": { "type": "Point", "coordinates": [ -77.371085, 37.947736 ] } }
,
{ "type": "Feature", "id": 316, "properties": { "NAME": "Golf Club of Virginia at Beacon Hill", "TYPE": "Private", "MAIL_ADD": "17160 Cannondale Drive", "CITY": "Leesburg", "ZIP": "20176", "PHONE": "703-669-4600", "COUNTY": "Loudoun", "COMMENT": "Estimated Boundary", "HYPERLINK": "http:\/\/www.vsga.org\/course.asp?id=14&cid=833" }, "geometry": { "type": "Point", "coordinates": [ -77.594181, 39.145687 ] } }
,
{ "type": "Feature", "id": 317, "properties": { "NAME": "Providence Golf Course", "TYPE": "Public", "MAIL_ADD": "1160 Providence Road", "CITY": "Richmond", "ZIP": "23236", "PHONE": "804-276-1876", "COUNTY": "Chesterfield", "COMMENT": "", "HYPERLINK": "http:\/\/www.providencegolfcourse.com\/" }, "geometry": { "type": "Point", "coordinates": [ -77.561208, 37.480943 ] } }
,
{ "type": "Feature", "id": 318, "properties": { "NAME": "Queenfield Plantation", "TYPE": "Public", "MAIL_ADD": "1896 Dabney's Mill Road", "CITY": "Manquin", "ZIP": "23231", "PHONE": "804-769-8838", "COUNTY": "King William", "COMMENT": "", "HYPERLINK": "http:\/\/www.queenfieldplantation.com\/" }, "geometry": { "type": "Point", "coordinates": [ -77.194205, 37.706085 ] } }
,
{ "type": "Feature", "id": 319, "properties": { "NAME": "Dominion Club Golf Course", "TYPE": "Private", "MAIL_ADD": "6000 Dominion Club Drive", "CITY": "Glen Allen", "ZIP": "23059", "PHONE": "804-360-0093", "COUNTY": "Henrico", "COMMENT": "", "HYPERLINK": "http:\/\/www.virginiagolf.com\/dominionclub.html" }, "geometry": { "type": "Point", "coordinates": [ -77.607636, 37.702829 ] } }
,
{ "type": "Feature", "id": 320, "properties": { "NAME": "Hunting Hawk Golf Club", "TYPE": "Public", "MAIL_ADD": "15201 Ashland Road", "CITY": "Glen Allen", "ZIP": "23059", "PHONE": "(804) 749-1900", "COUNTY": "Hanover", "COMMENT": "", "HYPERLINK": "http:\/\/www.virginiagolf.com\/huntinghawk.html" }, "geometry": { "type": "Point", "coordinates": [ -77.621238, 37.710520 ] } }
,
{ "type": "Feature", "id": 321, "properties": { "NAME": "Clear Creek Golf Course", "TYPE": "Public", "MAIL_ADD": "20012 Harleywood Road", "CITY": "Bristol", "ZIP": "24202", "PHONE": "276-466-4833", "COUNTY": "Washington", "COMMENT": "", "HYPERLINK": "http:\/\/www.virginiagolf.com\/clearcreek.html" }, "geometry": { "type": "Point", "coordinates": [ -82.123940, 36.665947 ] } }
,
{ "type": "Feature", "id": 322, "properties": { "NAME": "Olde Farm", "TYPE": "Private", "MAIL_ADD": "16639 Old Jonesboro Rd", "CITY": "Bristol", "ZIP": "24202", "PHONE": "276-669-1042", "COUNTY": "Bristol", "COMMENT": "", "HYPERLINK": "http:\/\/thegolfcourses.net\/golfcourses\/VA\/37611.htm" }, "geometry": { "type": "Point", "coordinates": [ -82.070236, 36.640176 ] } }
,
{ "type": "Feature", "id": 323, "properties": { "NAME": "Deer Creek Golf Park", "TYPE": "Public", "MAIL_ADD": "2524 Edmonds Rd.", "CITY": "Galax", "ZIP": "24333", "PHONE": "276-236-3221", "COUNTY": "Grayson", "COMMENT": "", "HYPERLINK": "http:\/\/www.virginia.org\/site\/description.asp?AttrID=15552&MGrp=1&MCat=86&MItm=22&Rgn=10000&StrtLtr=D" }, "geometry": { "type": "Point", "coordinates": [ -80.942580, 36.566041 ] } }
,
{ "type": "Feature", "id": 324, "properties": { "NAME": "Pete Dye River Course of Virginia Tech", "TYPE": "Public", "MAIL_ADD": "8400 Rivercourse Drive", "CITY": "Radford", "ZIP": "24141", "PHONE": "540-633-6732", "COUNTY": "Pulaski", "COMMENT": "", "HYPERLINK": "http:\/\/www.rivercoursegolf.com\/" }, "geometry": { "type": "Point", "coordinates": [ -80.528610, 37.142771 ] } }
,
{ "type": "Feature", "id": 325, "properties": { "NAME": "Deerfield Golf Course", "TYPE": "Public", "MAIL_ADD": "33315 Brittany Lane", "CITY": "Damascus", "ZIP": "24236", "PHONE": "276-475-5649", "COUNTY": "Washington", "COMMENT": "", "HYPERLINK": "http:\/\/www.virginiagolf.com\/deerfield.html" }, "geometry": { "type": "Point", "coordinates": [ -81.774847, 36.652965 ] } }
,
{ "type": "Feature", "id": 326, "properties": { "NAME": "Longview Golf Course", "TYPE": "Public", "MAIL_ADD": "589 Tee Time Drive", "CITY": "Galax", "ZIP": "24333", "PHONE": "276-523-0739", "COUNTY": "Grayson", "COMMENT": "pasture golf", "HYPERLINK": "http:\/\/www.pasturegolf.com\/courses\/longview.htm" }, "geometry": { "type": "Point", "coordinates": [ -81.027094, 36.623503 ] } }
,
{ "type": "Feature", "id": 327, "properties": { "NAME": "Ashley Plantation Golf Club", "TYPE": "Semi-Private", "MAIL_ADD": "Magnolia Lane", "CITY": "Daleville", "ZIP": "24083", "PHONE": "540-992-4653", "COUNTY": "Botetourt", "COMMENT": "", "HYPERLINK": "http:\/\/www.virginiagolf.com\/ashleyplantation.html" }, "geometry": { "type": "Point", "coordinates": [ -79.898628, 37.433872 ] } }
,
{ "type": "Feature", "id": 328, "properties": { "NAME": "Packsaddle Ridge", "TYPE": "Semi-Private", "MAIL_ADD": "3067 Packsaddle Trail", "CITY": "Harrisonburg", "ZIP": "22832", "PHONE": "540-269-8188", "COUNTY": "Rockingham", "COMMENT": "", "HYPERLINK": "http:\/\/www.virginiagolf.com\/packsaddle.html" }, "geometry": { "type": "Point", "coordinates": [ -78.745463, 38.465871 ] } }
,
{ "type": "Feature", "id": 329, "properties": { "NAME": "Jackson's Chase at Pine Hills", "TYPE": "Public", "MAIL_ADD": "65 Jackson's Chase Drive", "CITY": "Front Royal", "ZIP": "22630", "PHONE": "540-635-7814", "COUNTY": "Warren", "COMMENT": "", "HYPERLINK": "http:\/\/www.virginiagolf.com\/jacksonschase.html" }, "geometry": { "type": "Point", "coordinates": [ -78.223122, 38.984769 ] } }
,
{ "type": "Feature", "id": 330, "properties": { "NAME": "Heritage Oaks", "TYPE": "Public", "MAIL_ADD": "680 Garbers Church Road", "CITY": "Harrisonburg", "ZIP": "22801", "PHONE": "540-442-6502", "COUNTY": "Harrisonburg", "COMMENT": "", "HYPERLINK": "http:\/\/www.virginia.org\/site\/description.asp?AttrID=33125&MGrp=1&MCat=86&MItm=22&Rgn=10000&StrtLtr=H" }, "geometry": { "type": "Point", "coordinates": [ -78.899015, 38.447095 ] } }
,
{ "type": "Feature", "id": 331, "properties": { "NAME": "Shadow Ridge Golf Club", "TYPE": "Public", "MAIL_ADD": "361 Pierces Mill Road", "CITY": "Amherst", "ZIP": "24521", "PHONE": "434-946-2008", "COUNTY": "Amherst", "COMMENT": "", "HYPERLINK": "http:\/\/www.virginia.org\/site\/description.asp?AttrID=31725&MGrp=1&MCat=86&MItm=22&Rgn=10000&StrtLtr=S" }, "geometry": { "type": "Point", "coordinates": [ -78.985483, 37.573168 ] } }
,
{ "type": "Feature", "id": 332, "properties": { "NAME": "Sycamore Ridge Golf Course", "TYPE": "Public", "MAIL_ADD": "Route 2, Box 288", "CITY": "Goodview", "ZIP": "24095", "PHONE": "540-297-6490", "COUNTY": "Bedford", "COMMENT": "", "HYPERLINK": "http:\/\/www.virginiagolf.com\/sycamoreridge.html" }, "geometry": { "type": "Point", "coordinates": [ -79.706734, 37.190755 ] } }
,
{ "type": "Feature", "id": 333, "properties": { "NAME": "Oasis Sport Park", "TYPE": "Public", "MAIL_ADD": "15300 Cosby Rd", "CITY": "Chesterfield", "ZIP": "23112", "PHONE": "804-739-6833", "COUNTY": "Chesterfield", "COMMENT": "9 hole Par 3", "HYPERLINK": "http:\/\/www.oasissportspark.com\/" }, "geometry": { "type": "Point", "coordinates": [ -77.696030, 37.405153 ] } }
,
{ "type": "Feature", "id": 334, "properties": { "NAME": "Woodberry Forest Golf Course", "TYPE": "Private", "MAIL_ADD": "Route 15", "CITY": "Woodberry Forest", "ZIP": "22989", "PHONE": "540-672-3787", "COUNTY": "Madison", "COMMENT": "", "HYPERLINK": "http:\/\/www.virginiagolf.com\/woodberry.html" }, "geometry": { "type": "Point", "coordinates": [ -78.124251, 38.291985 ] } }
,
{ "type": "Feature", "id": 335, "properties": { "NAME": "City Park, Links at", "TYPE": "Public", "MAIL_ADD": "140 City Park Ave", "CITY": "Portsmouth", "ZIP": "23701", "PHONE": "757-465-2935", "COUNTY": "Portsmouth", "COMMENT": "", "HYPERLINK": "http:\/\/www.virginia.org\/site\/description.asp?AttrID=14862&MGrp=1&MCat=86&MItm=22&Rgn=10000&StrtLtr=C" }, "geometry": { "type": "Point", "coordinates": [ -76.371417, 36.830475 ] } }
,
{ "type": "Feature", "id": 336, "properties": { "NAME": "Brickshire, Golf Club at", "TYPE": "Public", "MAIL_ADD": "11010 Kentland Trail", "CITY": "Providence Forge", "ZIP": "23140", "PHONE": "804-966-7888", "COUNTY": "New Kent", "COMMENT": "", "HYPERLINK": "http:\/\/www.virginiagolf.com\/brickshire.html" }, "geometry": { "type": "Point", "coordinates": [ -76.993485, 37.476089 ] } }
,
{ "type": "Feature", "id": 337, "properties": { "NAME": "Royal New Kent Golf Course", "TYPE": "Public", "MAIL_ADD": "5300 Bailey Road", "CITY": "Providence Forge", "ZIP": "23140", "PHONE": "804-966-7023", "COUNTY": "New Kent", "COMMENT": "", "HYPERLINK": "http:\/\/www.virginiagolf.com\/royalnewkent.html" }, "geometry": { "type": "Point", "coordinates": [ -77.019467, 37.475184 ] } }
,
{ "type": "Feature", "id": 338, "properties": { "NAME": "Dominion Valley Country Club", "TYPE": "Private", "MAIL_ADD": "15200 Arnold Palmer Drive", "CITY": "Haymarket", "ZIP": "20169", "PHONE": "571-261-1887", "COUNTY": "Prince William", "COMMENT": "", "HYPERLINK": "http:\/\/www.dominionvalleycc.info\/" }, "geometry": { "type": "Point", "coordinates": [ -77.641313, 38.835519 ] } }
,
{ "type": "Feature", "id": 339, "properties": { "NAME": "Manassas Hills Golf Course", "TYPE": "Public", "MAIL_ADD": "7800 Willow Pond Court", "CITY": "Manassas", "ZIP": "20111", "PHONE": "703-368-2028", "COUNTY": "", "COMMENT": "", "HYPERLINK": "http:\/\/www.virginiagolf.com\/manassashillspar3.html" }, "geometry": { "type": "Point", "coordinates": [ -77.437228, 38.735979 ] } }
,
{ "type": "Feature", "id": 340, "properties": { "NAME": "Poplar Grove Golf Club", "TYPE": "Semi-Private", "MAIL_ADD": "380 London Lane", "CITY": "Amherst", "ZIP": "24521", "PHONE": "434-946-9933", "COUNTY": "Amherst", "COMMENT": "", "HYPERLINK": "http:\/\/www.virginia.org\/site\/description.asp?AttrID=32149&MGrp=1&MCat=86&MItm=22&Rgn=10000&StrtLtr=P" }, "geometry": { "type": "Point", "coordinates": [ -79.048835, 37.549019 ] } }
,
{ "type": "Feature", "id": 341, "properties": { "NAME": "Golden Eagle Golf Course at the Tides Inn", "TYPE": "Resort", "MAIL_ADD": "Golden Eagle Drive", "CITY": "Irvington", "ZIP": "22480", "PHONE": "804-438-5501", "COUNTY": "Lancaster", "COMMENT": "", "HYPERLINK": "http:\/\/www.virginia.org\/site\/description.asp?AttrID=13017&MGrp=1&MCat=86&MItm=22&Rgn=10000&StrtLtr=G" }, "geometry": { "type": "Point", "coordinates": [ -76.401681, 37.684441 ] } }

]
}
