{
"type": "FeatureCollection",
"features": [
{ "type": "Feature", "id": 0, "properties": { "NAME": "Perdue Farms Incorporated - Ac", "STREET": "22520 Lankford Hwy", "CITY": "Accomac", "STATE": "VA", "ZIP": 23301, "LAT": 37.731338, "LONG": -75.659177 }, "geometry": { "type": "Point", "coordinates": [ -75.659177, 37.731338 ] } }
,
{ "type": "Feature", "id": 1, "properties": { "NAME": "Tyson Foods Incorporated - Gle", "STREET": "13264 Mountain Rd", "CITY": "Glen Allen", "STATE": "VA", "ZIP": 23059, "LAT": 37.696102, "LONG": -77.551422 }, "geometry": { "type": "Point", "coordinates": [ -77.551422, 37.696102 ] } }
,
{ "type": "Feature", "id": 2, "properties": { "NAME": "New Market Poultry", "STREET": "145 Old Cross Road", "CITY": "New Market", "STATE": "VA", "ZIP": 22844, "LAT": 38.648203, "LONG": -78.673070 }, "geometry": { "type": "Point", "coordinates": [ -78.673070, 38.648203 ] } }
,
{ "type": "Feature", "id": 3, "properties": { "NAME": "Alma Plant", "STREET": "3426 Hwy 340 Business West", "CITY": "Stanley", "STATE": "VA", "ZIP": 22851, "LAT": 38.590403, "LONG": -78.591628 }, "geometry": { "type": "Point", "coordinates": [ -78.591628, 38.590403 ] } }
,
{ "type": "Feature", "id": 4, "properties": { "NAME": "Georges Chicken LLC", "STREET": "19992 Senedo Road", "CITY": "Edinburg", "STATE": "VA", "ZIP": 22824, "LAT": 38.877842, "LONG": -78.612617 }, "geometry": { "type": "Point", "coordinates": [ -78.612617, 38.877842 ] } }

]
}
